estacion,lat,lon,nombre
ELAZC,23.649722,-103.4475,"El Arenal, Zac."
IXMHD,20.481944,-99.220833,"Ixmiquilpan, Hgo."
JALTB,17.9875,-92.816667,"Jalapa, Tab."
ZAPJL,20.404167,-103.0875,"Zapotlanejo, Jal."
MNANL,26,-100.530556,"Mina, N.L."
CDOTP,26.238056,-98.5975,"S-J-2-18 Ciudad Díaz Ordaz, Tamps."
LCAMC,18.429167,-100.997222,"La Calera, Mich."
XOBVC,19.533333,-96.916667,"Observatorio de Xalapa, Ver."
TRNGJ,0,0,"La Trinidad, Gto."
CUIMC,19.956111,-101.138056,"Cuitzeo, Mich."
TCHZC,23.471944,-103.879722,"Chalchihuites, Zac."
SJUJL,21.688889,-102.538889,"San Juan, Jal."
PLMSO,31.25,-112.1,"El Plomo, Son."
VIFCP,16.233333,-93.270833,"Villa Flores, Chis."
SAACL,25.273333,-100.575556,"San Antonio de las Alazanas, Coah."
CHYVC,21.7375,-98.155833,"Paso de Piedras, Ver."
IRASO,28.426389,-110.396944,"Ignacio R. Alatorre, Son."
CPEJL,19.9975,-105.129722,"Cajón de Peña, Jal."
ACZMX,20.166667,-99.6,"Acazuchitlan, Mex."
SRLBS,27.3,-112.283333,"Santa Rosalía, B.C.S."
HDZSI,25.983333,-109.333333,"Higuera de Zaragoza, Sin."
EFTSI,26.433333,-108.616667,"El Fuerte, Sin."
CALGR,18.359444,-100.664444,"Ciudad Altamirano, Gro."
MEOYC,20.946389,-89.651111,"Observatorio de Mérida, Yuc."
PLMBS,25.183333,-112.1,"Puerto Adolfo López Mateos, B.C.S."
SNTCM,19.129444,-104.348333,"Santiago, Col."
CALVC,18.1875,-96.094444,"Ciudad Alemán, Ver."
ETEVC,19.068889,-96.158333,"El Tejar, Ver."
CHRMC,18.655556,-101.631944,"Churumuco, Mich."
PERHD,20.0575,-98.334722,"La Esperanza, Hgo."
JACOX,17.866667,-96.2,"Jacatepec, Oax."
ARLSO,29.076667,-110.92,"Abelardo Rodríguez Luján, Son."
PETYC,20.1325,-88.930833,"Peto, Yuc."
HLSVC,21.160556,-98.274167,"Los Hules, Ver."
VJRSL,22.325556,-100.27,"Villa Juárez, S.L.P."
JABCP,16.147222,-91.377222,"Jabalí, Chis."
APRDR,26.226389,-104.493889,"Ing. Benjamín Ortega Cantero, Dgo."
PMHSI,26.509722,-108.58,"Miguel Hidalgo, Sin."
GDOSI,25.856667,-107.911111,"Gustavo Díaz Ordaz, Sin."
JALZC,24.281667,-103.397778,"Juan Aldama, Zac."
VTZSL,21.4,-98.9,"Villa Terrazas, S.L.P."
LSRTP,22.833333,-99.116667,"La Servilleta, Tamps."
PROMR,18.771111,-99.156944,"Progreso (IMTA), Mor."
LMTGJ,20.3,-101,"Lomo de Toro, Gto."
CURMR,18.948333,-99.230833,"Secretaría de Eduación Pública Cuernavaca, Mor."
SALCL,25.376389,-101.016667,"Observatorio de Saltillo, Coah."
PSLGR,16.8,-99.9,"Palma Sola 1, Gro."
PAGDR,24.203889,-104.656667,"Peña del Águila, Dgo."
SGDDF,19.572222,-99.122222,"Sierra Guadalupe, Cd. de Méx."
TABCP,0,0,"Tablón, Chis."
LLNCH,28.984444,-105.28,"Ing. Luis L. León, Chih."
EGCJL,20.680833,-102.976111,"Ing. Elías González Chávez, Jal."
URSSO,29.426944,-110.392222,"Ures, Son."
OLNGR,17.777222,-98.735,"Olinala, Gro."
NIDDR,24.9,-105.1,"Nuevo Leal, Dgo."
ZAPCP,16.090833,-91.399167,"Zapotal, Chis."
LHRDR,25.35,-106.7,"La Huerta, Dgo."
ECHPB,18.966111,-98.275556,"Echeverría, Pue."
CSLBS,22.881944,-109.9125,"Cabo San Lucas, B.C.S."
TCRSO,26.918333,-109.453333,"Tres Carlos, Son."
AQMSL,21.627778,-99.015833,"Aquismón, S.L.P."
SLAMX,19.190278,-98.870833,"San Luis Ameca, Méx."
LSANR,21.941111,-104.553889,"Los Sabinos, Nay."
MTPSO,29.113889,-109.966111,"Mátape, Son."
CPEHD,0,0,"Canal a Presa Endhó, Hgo."
PA2OX,18.166667,-96.083333,PAPALOAPAN II
MACTB,17.766667,-92.6,"Macuspana, Tab."
AWSSI,25.033333,-107.466667,"Andrew Weiss, Sin."
K58SO,27.436389,-109.845,"km 58 de Canal Alto, Son."
K54DR,0,0,"km 54+000, Dgo."
FROTB,18.529444,-92.216667,"Frontera, Tab."
GDUSO,28.95,-108.708333,"La Guadalupe, Son."
CINBS,25.263889,-111.776389,"Ciudad Insurgentes, B.C.S."
TENJL,22.171944,-103.198611,"Tenasco, Jal."
REATP,25.649444,-98.055833,"S-J-3-48A Reynosa, Tamps."
RQEGJ,20.534722,-100.813611,"Roque, Gto."
HUAOX,18.116667,-96.833333,"Huautla, Oax."
SMODR,25.953333,-105.366667,"Santa María del Oro, Dgo."
EFLBN,32.468056,-116.828333,"El Florido, B.C."
CGCMX,19.205,-99.511667,"Gerencia Conagua CODAGEM, Méx."
CGOVC,19.45,-96.7,"Cerro Gordo, Ver."
CHIZC,21.997222,-102.896111,"El Chique, Zac."
CORZC,24.621389,-101.389167,"Concepción del Oro, Zac."
CCLVC,18.3,-95.8,"Chacaltianguis, Ver."
BRIVC,19.483333,-96.933333,"Briones, Ver."
ARZSO,30.335833,-110.1675,"Arizpe, Son."
K39SO,27.560278,-109.873889,"km 39 de Canal Alto, Son."
NCESO,27.561667,-109.845833,"Procesadora Bachoco, Son."
ZANOX,16.4025,-94.216111,"Zanatepec, Oax."
TEQOX,16.416667,-95.6,"Tequisistlán, Oax."
CALMX,19.333333,-99.7,"Calixtlahuaca, Méx."
VOLJL,20.0675,-103.09,"Volantín, Jal."
SSCDF,19.320833,-98.960556,"Subestación Eléctrica Santa Catarina, Cd. de Méx."
GPCCH,29.2,-108.3,"Guapoca, Chih."
ERECH,28.614722,-106.119444,"El Rejón, Chih."
ANGCP,16.401389000000002,-92.778889,"Doctor Belisario Domínguez, Chis."
CPLPB,19.092778,-98.059444,"Capulac, Pue."
VLONL,26.666667,-100,"Vallecillo, N.L."
CHLPB,19.068611,-98.318056,"Cholula, Pue."
SBBMX,19.465833,-99.704722,"José Antonio Alzate, Méx."
LSOTP,23.961111,-98.6625,"La Sonadora, Tamps."
GGUNL,25.105278,-99.347222,"Gatos Güeros, N.L."
SADMX,19.530556,-98.911111,"San Andrés (Texcoco), Méx."
INIQR,18.572222,-88.459444,"Instituto Nacional de Innovación Agraria, Q. Roo."
CVTTP,23.730278,-99.1875,"Ciudad Victoria (Gerencia), Tamps."
DORBS,27.783333,-113.420833,"Díaz Ordaz, B.C.S."
SBABS,23.716667,-109.883333,"San Bartolo, B.C.S."
VVCMX,19.461667,-100.055556,"Villa Victoria, Méx."
CABNL,24.99,-99.743889,"Cabezones, N.L."
CANNL,25.800556,-100.274722,"El Canadá, N.L."
CALNL,25.22,-99.94,"Calles, N.L."
SNHSO,26.918333,-109.453333,"Sinahuiza, Son."
ECTTL,19.318056,-97.6475,"El Carmen Tequexquitla, Tlax."
BDRSI,25.333333,-107.5375,"Badiraguato, Sin."
YESSO,30.598889,-110.895833,"Yeso, Son."
LDMJL,21.359722,-101.919722,"Lagos de Moreno, Jal."
CL2CH,27.410278,-105.381667,"Colina (hidrométrica), Chih."
RITSO,32.1,-114.9,"Riíto, Son."
AHUSL,21.3,-99,"Ahuacatlán, S.L.P."
MIRVC,19.460556,-96.7625,"Miradores, Ver."
CDFGR,16.8,-99.85,"Cumbre de Figueroa, Gro."
CDBMX,19.406667,-99.298611,"Caída del Borracho, Méx."
PRSCL,27.422222,-101.002222,"Progreso, Coah."
CMLCM,19.3175,-103.757222,"Comala, Col."
VDCMX,19.510278,-99.211667,"Vaso de Cristo, Méx."
TMOTP,24.251389,-99.436111,"El Tomaseño, Tamps."
K11CH,28.2,-108.6,"km 115+100, Chih."
SOMZC,23.638889,-103.636667,"Sombrerete, Zac."
MCVCL,26.908333,-101.4225,"Monclova, Coah."
GYCCH,26.1,-106.966667,"Guadalupe y Calvo, Chih."
CDSPB,18.987222,-97.441667,"Ciudad Serdán, Pue."
ENSBN,31.49,-116.37,"Ensenada, B.C."
CDVDF,19.407778,-99.1125,"Ciudad Deportiva, Cd. de Méx."
CDCDR,24.978611,-104.768611,"Coneto de Comonfort, Dgo."
CTTVC,18.144444,-95.295833,"Coatotolapan, Ver."
LENGJ,21.1,-101.666667,"León, Gto."
KM0CH,0,0,"km 0+500, Chih."
PANTP,25.8,-97.8,"Pueblo Anáhuac, Tamps."
ECBGJ,20.2,-100.5,"El Cubo, Gto."
POLJL,20.491111,-102.231944,"Ing. Guillermo Lugo Sanabria, Jal."
FIMDR,24.466667,-104.3,"Francisco I. Madero, Dgo."
ESMDR,0,0,"Esmeralda, Dgo."
CONSO,29,-109.2,"Cajón de Onapa, Son."
CMYDF,19.486389,-99.183333,"Campo Mecoaya, Cd. de Méx."
TXHHD,19.834722,-99.385278,"Taxhimay, Hgo"
CAZSO,26.618056,-108.765556,"Cazanate, Son."
TMPVC,21.517222,-98.383333,"Tempoal, Ver."
EPCMX,0,0,"E.P.C.C.A., Méx."
CHPCA,18.212778,-91.508611,"Chumpán, Camp."
ESBGJ,20.266667,-101,"El Sabino, Gto."
MTRNL,25.6825,-100.271667,"Monterrey, N.L."
TCMDF,19.556111,-99.1425,"Tanque Chalmita, Cd. de Méx."
TLPGR,17.5,-98.6,"Tlapa, Gro."
CALJL,21.475,-102.593056,"Calerita, Jal."
ZDRGR,17.655,-99.525278,"Zumpango del Río, Gro."
TROMX,19.1,-100.283333,"Trojes, Méx."
CATYC,20.715833,-87.865,"Catzín, Yuc."
APITL,19.4,-98.1,"Apizaco, Tlax."
UREMC,19.962222,-102.137778,"Urepetiro, Mich."
LOBZC,22.845278,-103.382778,"Manuel Felgueres, Zac."
BATQT,20.5025,-100.354167,"El Batán, Qro."
PAMJL,20.55,-104.05,"Puente Ameca, Jal."
PLACP,17.577778,-93.3875,"Platanar, Chis."
PIMCP,16.311667,-91.7625,"Pimienta, Chis."
REVCP,16.158333,-93.079167,"Revolución Mexicana, Chis."
SLMTP,23.7675,-98.210833,"Soto la Marina, Tamps."
RUINR,21.958333,-105.1425,"Ruiz, Nay."
RSRNR,21.8,-104.8,"Reguladora San Rafael, Nay."
CDLCH,28.210833,-105.446944,"Ciudad Delicias, Chih."
ARCSI,25.7,-108.7,"Adolfo Ruíz Cortínes, Sin."
TRJMC,19.48,-101.433333,"Terejero, Mich."
RNCVC,19.35,-96.55,"Rinconada, Ver."
PARCL,25.440833,-102.181667,"Parras, Coah."
CNTCL,29.213611,-100.95,"El Centenario, Coah."
LBCNL,25.428056,-100.128056,"La Boca, N.L."
CESDR,25.605556,-105.748611,"Calle Escobar, Dgo."
TCOGR,17.1675,-99.526389,"Tierra Colorada, Gro."
TMUMC,19.766389,-100.299167,"Tercer Mundo, Mich."
SBRDR,24.5,-104.8,"San Bartolo, Dgo."
ECBSO,29.2,-109.233333,"El Cubil, Son."
TAPCP,14.9,-92.183333,"Tapachula, Chis."
JLPQT,21.230278,-99.479722,"Jalpan, Qro."
CGZJL,19.697778,-103.465278,"Ciudad Guzmán, Jal."
PSANL,27.429167,-100.372222,"Salinillas, N.L."
MECYC,20.967222,-89.618333,"Merida Centro, Yuc."
SNVAG,21.885,-102.108889,"Sandovales, Ags."
OXKYC,20.290556,-89.394722,"Oxkutzcab, Yuc."
CHIMX,19.2,-100.116667,"Chilesdo, Méx."
PAYCP,16.833333,-92.945833,"Plan de Ayala, Chis."
ANSGJ,20.712778,-101.370833,"Arandas, Gto."
JONTB,18.085556,-92.136944,"Jonuta, Tab."
SLAGR,16.816667,-98.75,"San Luis Acatlán, Gro."
PADTP,24.05,-98.9,"Padilla, Tamps."
ROSCP,16.9,-91.8,"Rosario, Chis."
AJJJL,21.599444,-102.436944,"Ajojúcar, Jal."
LNRDR,24.613056,-103.306944,"Los Naranjos, Dgo."
MCHSI,25.8,-109,"Los Mochis, Sin."
PSDMX,19.783333,-99.8,"El Pescado 2, Méx."
NANVC,18.066667,-94.383333,"Nanchital, Ver."
XCTTL,19.166667,-98.25,"Xicotzingo, Tlax."
IXPSI,23.955556,-106.595833,"Ixpalino, Sin."
SRANL,25.028333,-100.551111,"San Rafael, N.L."
CUATL,19.298889,-97.769722,"Cuapiaxtla, Tlax."
CBRDR,24.538333,-104.810278,"Caboraca, Dgo."
CAGCH,30.376667,-107.930833,"Casas Grandes, Chih."
SAYCP,17.425,-93.383333,"Sayula, Chis."
JNASI,25.9,-108.013889,"Jaina, Sin."
TESMX,18.931389,-99.935833,"Texcaltitlán, Méx."
REFCP,15.916667,-92.666667,"Reforma, Chis."
CEDSL,23.816667,-100.725,"Cedral, S.L.P."
TMSTP,22.423889,-98.422778,"Tamesí, Tamps."
PTTGR,17.533333,-101.266667,"Petatlán, Gro."
SDICP,15.7425,-93.3,"San Diego, Chis."
NVLAG,22.020556,-102.001944,"El Novillo, Ags."
CCHGR,17.672222,-99.701111,"Chichihualco, Gro."
TZICP,17.283333,-93.5375,"Tzimbac, Chis."
LFLZC,22.686944,-103.603056,"La Florida, Zac."
CHOYC,20.752778,-89.829444,"Chocholá, Yuc."
FDOTP,24.843889,-98.158333,"San Fernando, Tamps."
MGZTP,22.794167,-98.716111,"Magiscatzín, Tamps."
HTBSO,26.822778,-109.630556,"Huatabampo, Son."
CTNDF,19.190278,-99.09,"Cuautenco, Cd. de Méx."
ODZGR,17.6,-99.5,"Observatorio de Zumpango, Gro."
CHOAG,22.007222,-102.197222,"Cañada Honda, Ags."
IGLGR,18.349722,-99.55,"Iguala, Gro."
GDLMX,19.635556,-99.252222,"Guadalupe, Méx."
SANMC,19.854444,-102.54,"San Marcos, Mich."
ACAPULCO,16.762778,-99.749167,"Acapulco, Gro. SMN*"
SBYDR,23.874444,-104.675833,"Santiago Bayacora, Dgo."
FMUZC,0,0,"Francisco R. Murguía, Zac."
CVCTP,23.716667,-99.166667,"Observatorio de Ciudad Victoria, Tamps."
PVRJL,20.777222,-104.102222,"Laguna Palo Verde, Jal."
CDRNL,25.590278,-99.975,"Cadereyta, N.L."
K40DR,0,0,"km 40+000 Sacramento, Dgo."
BTVCH,27.9,-107.9,"Batovira, Chih."
CHLJL,20.489722,-102.944167,"Chila, Jal."
TMTSL,21.241111,-98.758889,"Temamatla, S.L.P."
OCMCL,27.316667,-102.4,"Ocampo, Coah."
YURMC,20.339444,-102.242222,"Yurécuraro, Mich."
LCRSL,21.7,-99.1,"La Calera, S.L.P."
GTAGR,16.874444,-99.878889,"La Garita (Túnel Alto), Gro."
BNMSO,30.003611,-110.215,"Banamichi, Son."
VAGSL,21.9,-101.383333,"Villa de Arriaga, S.L.P."
HRTJL,20.466944,-103.651111,"Hurtado, Jal."
PVCVC,17.833333,-95.816667,"Playa Vicente, Ver."
LESCP,16.490278,-93.025,"La Escalera, Chis."
QRBSO,30.050556,-111.021389,"Querobabi, Son."
PBTMX,19.575,-99.175,"Planta Barrientos, Méx."
YAMCP,17.116667,-93.330556,"Yamonhó, Chis."
SHDNL,26.500556,-100.153889,"Sabinas Hidalgo, N.L."
BLMSL,21.748889,-98.955833,"Ballesmi, S.L.P."
SATVC,18.45,-95.216667,"San Andrés Tuxtla, Ver."
NYNSO,31.866667,-112.85,"Sonoyta, Son."
SBNSO,27.411944,-108.876667,"San Bernardo, Son."
INFMC,18.266667,-101.883333,"Infiernillo, Mich."
SLDMR,18.918333,-99.190556,"Solidaridad, Mor."
PALZC,22.347778,-102.798056,"Palomas, Zac."
ALAVC,20.93,-97.68,"Álamo Temapache, Ver."
SVTSL,21.692778,-98.617222,"San Vicente, S.L.P."
SIQCH,27.283333,-107.220833,"Siquirichi, Chih."
URECH,27.216667,-107.9125,"Urique, Chih."
FVLDR,24.001667,-103.960833,"Francisco Villa, Dgo."
JCRGJ,20.133333,-100.516667,"Jerécuaro, Gto."
LCACP,16.75,-92.633333,"La Cabaña, Chis."
CDBGR,18.333333,-100.633333,"Coyuca de Benítez, Gro."
BCRJL,20.3,-102.7,"Becerrera, Jal."
MATSL,23.656944,-100.642778,"Matehuala, S.L.P."
VGRGR,18.382778,-100.265833,"Vicente Guerrero, Gro."
TPCGJ,20.740278,-101.370833,"Tepalcates, Gto."
K91SO,27.483333,-109.933333,"km 91 de Canal Alto, Son."
AERGR,16.751111,-99.5,"Aeropuerto de Chilpancingo, Gro."
OJNCH,29.565,-104.410833,"Ojinaga, Chih."
ATQJL,20.397222,-103.091944,"Atequiza, Jal."
CHRSL,23.131944,-101.107222,"Charcas, S.L.P."
FZRDR,25.270833,-103.773611,"Francisco Zarco, Dgo."
PSCGR,16.885,-99.915556,"Palma Sola-Camarón, Gro."
BOQJL,21.058333,-103.397222,"La Boquilla, Jal."
SBNCL,27.846667,-101.122778,"Sabinas, Coah."
NRGCH,27.25,-107.133333,"Norogachi, Chih."
DESCP,15.204167,-92.575,"Despoblado, Chis."
FLCTP,26.560278,-99.170556,"Internacional Falcón, Tamps."
LDYGJ,20.286944,-101.073056,"Laguna de Yuriria, Gto."
LLJGR,16.9,-99.9,"La Laja, Gro."
FDOCP,16.866667,-93.2,"San Fernando, Chis."
ZICMC,18.921111,-101.931944,"Zicuirán, Mich."
CNSQT,20.418611,-100.080278,"Constitución de 1917, Qro."
PRRCH,26.917778,-105.675556,"Parral, Chih."
CLGGR,17.15,-98.931111,"Cumbres del Llano Grande, Gro."
VJIMC,19.55,-101.45,"Villa Jiménez, Mich."
SJLGJ,20.4,-101.016667,"Santa Julia, Gto."
CAJJL,0,0,"Cajititlán, Jal."
BBAJL,19.913611,-104.061111,"Basilio Vadillo, Jal."
PSOGR,16.9,-99.9,"Palma Sola 2, Gro."
SMACP,16.938889,-92.820833,"Santa María, Chis."
BVSGR,18.2,-99.2,"Buena Vista, Gro."
TORCP,17.216667,-93.581111,"Tortuguero, Chis."
LGVGJ,20.383333,-100.866667,"Puente la Gavia, Gto."
SLOGJ,20.95,-101.433333,"Silao, Gto."
ACAGR,16.849722,-99.906667,"Acapulco, Gro."
TICYC,20.397778,-89.558056,"Ticul, Yuc."
CDLCL,26.844444,-100.661111,"Candela, Coah."
SJATL,19.556111,-98.200556,"San José Atlanga, Tlax."
PDSJL,21.337222,-102.532778,"Paso del Sabino, Jal."
ESIGR,18.3,-99.5,"Escuela Secundaria Anexa Iguala, Gro."
AOMGR,16.751111,-99.878611,"Observatorio de Aeropuerto de Acapulco, Gro."
LPAMC,20.146667,-102.751389,"La Palma, Mich."
LNDSO,26.878611,-109.710833,"Lindero, Son."
AFTCL,25.3,-101.2,"Ateneo Fuentes, Coah."
ABSTP,24.065556,-98.39,"Abasolo, Tamps."
FMUDR,23.8,-104.1,"Francisco Murguía, Dgo."
EPUQT,20.535,-100.453333,"El Pueblito, Qro."
TMRSI,24.9,-107.5,"Tamarindo, Sin."
LFLDR,25.068056,-103.283889,"La Flor, Dgo."
CORTP,23.939167,-98.935833,"Corona, Tamps."
LJNCH,28.754167,-107.98055600000001,"La Junta, Chih."
LESNR,22.558333,-105.341667,"La Estancia, Nay."
TMISL,22.003611,-98.773333,"Tamuín, S.L.P."
TRGDF,19.361944,-99.2125,"Tarango, Cd. de Méx."
ORZDR,0,0,"Orizonte, Dgo."
ZTCHD,20.766667,-98.25,"Zontecomatlán, Hgo."
TLYSI,26.205278,-108.27,"Tlayote, Sin."
TBRSI,26.9,-108.129167,"San Francisco, Sin."
GTNSI,25.344444,-107.225,"Guatenipa, Sin."
VLPCH,27.003056,-105.036111,"Villa López, Chih."
CGRMC,19.766667,-101.116667,"Cuitzillo Grande, Mich."
TMOSL,21.55,-98.816667,"Tampamolón, S.L.P."
XOCTL,19.307222,-98.382778,"Xocoyucan, Tlax."
SPPDF,19.281389,-99.009722,"San Pedro Tláhuac, Cd. de Méx."
CTSSL,22.431667,-100.283056,"Cerritos, S.L.P."
PIXPB,18.2,-98.264722,"Piaxtla, Pue."
JMANR,22.250833,-104.516944,"Jesús María, Nay."
ELCPB,20.083333,-98.116667,"El Carmen, Pue."
TALCP,14.966667,-92.147222,"Talismán, Chis."
LPSCM,19.223333,-103.725278,"La Posta, Col."
CFSDF,19.155556,-99.208333,"Caseta Forestal, Cd. de Méx."
TONCP,16.086944,-93.75,"Tonalá, Chis."
RSTDR,25.776667,-103.115278,"Rositas, Dgo."
PDZMX,18.903333,-99.611667,"Porfirio Díaz, Méx."
K68SO,27.354444,-109.858611,"km 68 de Canal Alto, Son."
JDPGJ,20.38,-101.056389,"Jaral del Progreso, Gto."
TCTJL,20.036111,-104.320278,"Tacotán, Jal."
TEZPB,19.815278,-97.956944,"Teziutlán, Pue."
K23SO,27.776667,-109.904444,"km 23, Son."
TPZMR,18.971389,-99.072778,"Tepoztlán, Mor."
HTZGR,18.3025,-99.332778,"Huitzuco, Gro."
CIVYC,21.021389,-89.6275,"Cinvestav, Yuc."
EPGTP,22.941944,-98.788611,"Emilio Portes Gil, Tamps."
TESSO,27.171111,-109.358333,"Tesia, Son."
ELLMC,20,-102.4,"El Llano, Mich."
TPICP,15.875,-93.529167,"Tres Picos, Chis."
PBODF,19.38,-99.037778,"Planta de Bombeo U. E. de Oriente, Cd. de Méx."
DNXMX,19.884722,-99.559722,"Danxhó, Méx."
GUCJL,20.7,-103.4,"Guadalajara los Colomos, Jal."
SLTTL,19.244167,-98.19,"San Luis Teolocholco, Tlax."
LLAPB,20.135556,-98.128333,"La Laguna, Pue."
TXPVC,20.955556,-97.4,"Tuxpan, Ver."
SANDF,19.166667,-99,"Santa Ana, Cd. de Méx."
TSJDF,19.436389,-99.228611,"Tanque San Joaquín, Cd. de Méx."
AMCGJ,20.55,-100.583333,"Ameche, Gto."
ETAMR,18.881944,-98.967222,"E.T.A. 118, Mor."
SPECL,25.7575,-102.979444,"San Pedro, Coah."
HUECP,14.997222,-92.402778,"Huehuetán, Chis."
AMCMR,18.6,-99.4,"Amacuzac, Mor."
TLAGR,17.789722,-99.976389,"Tlacotepec, Gro."
HSHSO,30.210556,-108.957222,"Huachinera, Son."
RDSNL,27.233333,-100.133333,"Rodríguez, N.L."
PTLMX,19.408333,-99.213333,"Presa Totolica, Méx."
YESJL,21.193056,-104.090278,"La Yesca, Jal."
TPJPB,18.584722,-97.933333,"Tepexi de Rodríguez, Pue."
TUXOX,18.083333,-96.133333,"Tuxtepec, Oax."
CULJL,20.583333,-105.05,"Cuale, Jal."
HZMDR,22.31,-104.29,"Huazamota, Dgo."
CAGDR,24,-104.7,"Campo Agrícola, Dgo."
CBRCL,29.15,-101.116667,"Cabeceras, Coah."
NYXCA,19.605833,-90.221389,"Noh-Yaxché, Camp."
IHXTL,19.326667,-98.366111,"Ixtlahuixtla, Tlax."
SLZTP,22.943889,-98.791389,"Lic. Emilio Portes Gil, Tamps."
YCRSI,26.916667,-108.216667,"Yecorato, Sin."
CANQR,21.156667,-86.820278,"Cancún, Q. Roo."
VDANL,25.3,-100,"Villa de Allende, N.L."
SJLJL,21.033333,-102.183333,"San Julián, Jal."
TXTGR,17.568056,-99.399444,"Tixtla, Gro."
AMLDR,25.264167,-104.068056,"Agustín Melgar, Dgo."
MGSTP,22.795833,-98.705556,"Magiscatzín Dos, Tamps."
CRRJL,20.133333,-103.716667,"Corrinchis, Jal."
EBLSI,25.484722,-108.065556,"Lic. Eustaquio Buelna, Sin."
EZCDF,19.295,-99.352222,"El Zarco, Cd. de Méx."
FCRQR,19.575556,-88.045,"Felipe Carrillo Puerto, Q. Roo."
GESDR,25.5,-105.25,"General Escobedo, Dgo."
CNPMX,19.695,-99.304444,"La Concepción, Méx."
LCRDR,25.594167,-105.015833,"Lázaro Cárdenas, Dgo."
LAYMX,19.4,-99.6,"La Y, Méx."
ALENL,25.283333,-100.033333,"Allende, N.L."
ARNNL,25.813889,-98.975,"Arenal, N.L."
APCNL,25.779167,-100.190278,"Apodaca, N.L."
VNTQT,20.498611,-100.190556,"La Venta, Qro."
TDRDR,24.702222,-106.538056,"El Tule del Real, Dgo."
SHEZC,23.618056,-101.723056,"Sierra Hermosa, Zac."
TECVC,20.479167,-97.009722,"Tecolutla, Ver."
OLVVC,21.840278,-98.5125,"El Olivo, Ver."
SBNTP,23.022778,-99.094444,"Sabinas, Tamps."
K14SO,27.706667,-109.896389,"km 14 de Canal Alto, Son."
PUYTB,17.566667,-92.9375,"Puyacatengo, Tab."
AMATL,19.3,-98.1,"Amaxac, Tlax."
INGCH,26.870833,-107.879167,"San Ignacio, Chih."
IXHCM,19,-103.718056,"Ixtlahuacán, Col."
LCLJL,20.43,-102.931944,"La Colonia, Jal."
LBABS,23.680556,-109.697222,"Los Barriles, B.C.S."
K27MX,19.633333,-99.05,"km 27+250, Méx."
CHPNR,21.944167,-104.5,"Chapalagana, Nay."
ELOSL,22.094722,-100.9675,"Cañada del Lobo, S.L.P."
LIMSL,0,0,"El Limón, S.L.P."
HPOCA,19.751944,-89.848333,"Hopelchen, Camp."
HITZC,21.223889,-103.60555600000001,"Huitzila, Zac."
LMOZC,22.438611,-102.251667,"Luis Moya, Zac."
GPEZC,22.746667,-102.506667,"Guadalupe, Zac."
SLRSI,24.8,-107.1,"San Lorenzo, Sin."
CUHGR,16.855556,-99.831944,"Coloso (Unidad Habitacional el Coloso), Gro."
PRMDF,19.513056,-99.154444,"Planta de Tratamiento Río Magdalena, Cd. de Méx."
SCADF,19.402222,-99.133333,"Santa Cruz Acatlán, Cd. de Méx."
AFIGR,18.075833,-100.5175,"Andrés Figueroa, Gro."
ADCGR,17.6,-99.5,"Almacén de Chilpancingo, Gro."
JUCOX,16.433333,-95.033333,"Juchitan, Oax."
PLMMX,19.429444,-99.248889,"Palmas, Méx."
TMPTP,22.238611,-97.878889,"Tampico, Tamps."
ARBMX,19.566667,-99.216667,"Las Arboledas, Méx."
BTZNL,24.733333,-99.466667,"Benítez, N.L."
CUCMR,18.95,-99.233333,"Cuernavaca Centro, Mor."
PGNDF,19.455833,-99.097222,"Planta Generadora 101, Cd. de Méx."
TGRGJ,20.5,-100.8,"Tres Guerras, Gto."
ALMSI,25.101389,-107.388333,"Adolfo López Mateos, Sin."
LBUZC,22.778889,-102.566944,"La Bufa, Zac."
CHLMC,19.287778,-102.774167,"Constitución de Apatzingán, Mich."
EBDSI,24.804167,-107.145833,"El Blendal, Sin."
BOQOX,16.647222,-95.929167,"Boquilla 1, Oax."
PDLSI,27,-108.416667,"Palo Dulce, Sin."
PCOCP,15.848611,-91.968056,"Puente Concordia, Chis."
EYNTP,25.765833,-98.167778,"S-J-3-60 Reynosa, Tamps."
LQMJL,20.960556,-104.049444,"La Quemada, Jal."
LDCJL,20.18,-103.12,"Lago de Chapala, Jal."
TSFNL,25.413333,-100.165278,"Túnel de San Francisco, N.L."
LGLMX,19.627778,-99.252778,"Lago Guadalupe, Méx."
NGRAG,21.78,-102.371667,"El Niagara, Ags."
SCHCM,19.408333,-103.700833,"Suchitlán, Col."
OBSTL,19.4,-98.2,"Observatorio de Tlaxcala, Tlax."
LACCP,16.580833,-90.702222,"Lacantún, Chis."
MEXJL,21.263889,-102.775833,"Mexticacán, Jal."
ACTVC,19.495,-96.5875,"Actopan, Ver."
ACTHD,20.268056,-98.941667,"Actopan, Hgo."
PDMBN,32.703889,-114.729444,"Presa Derivadora Morelos, B.C."
CPLGJ,20.721667,-101.346667,"Copalillo, Gto."
MCATP,26.234444,-98.682222,"S-J-2-23 Municipio Camargo, Tamps."
ENNTP,23.383333,-99.083333,"La Encantada, Tamps."
TECZC,21.543611,-103.041944,"Tecomate, Zac."
ATYGR,17.210278,-100.433333,"Atoyac, Gro."
YAHMR,18.9,-99.1,"Yautepec, Mor."
FRSNL,26.4,-99.9,"Fresnillo, N.L."
AHUPB,20.033056,-98.148056,"Ahuazontepec, Pue."
MRYTP,26.215556,-98.511667,"S-J-2-33 Municipio Reynosa, Tamps."
VILMC,18.048333,-102.180278,"José María Morelos y Pavón, Mich."
BVSSO,30.479444,-108.938889,"Bavispe, Son."
SLCSO,32.483333,-114.783333,"San Luis Río Colorado, Son."
ABRAG,21.916944,-102.427778,"Abelardo L. Rodríguez., Ags."
MDITP,26.157778,-98.524444,"S-J-2-29 Municipio Díaz, Tamps."
SLCDR,25.085,-104.276944,"San Luis del Cordero, Dgo."
SGRSL,22.2,-101,"Soledad Graciano, S.L.P."
AM2DR,25.263333,-104.066111,"Agustín Melgar, Dgo. SMN*"
VRYSL,21.8,-100.933333,"Villa de Reyes, S.L.P."
VERVC,19.154167,-96.111111,"Veracruz, Ver."
OCAZC,22.577778,-102.269444,"Ojo Caliente, Zac."
TAYZC,22.120556,-102.864167,"Ing. Julián Adame Alatorre, Zac."
PRCVC,20.540833,-97.478333,"Poza Rica, Ver."
TRRVC,21.036944,-98.139167,"Terrerillos, Ver."
JERZC,22.642778,-103.001944,"Jerez, Zac."
EZAYC,20.983889,-89.583611,"Emiliano Zapata, Yuc."
COAVC,19.453889,-96.939444,"Coatepec, Ver."
APTSO,31.326944,-109.540833,"Agua Prieta, Son."
BCASO,30.634167,-109.968889,"Bacoachi, Son."
MLPDF,19.187222,-99.026944,"Milpa Alta, Cd. de Méx."
BCDSO,29.807222,-109.14,"Bacadehuachi, Son."
PFDSO,27.598333,-109.930278,"Porfirio Díaz, Son."
VATSL,22,-99,"Valle Alto, S.L.P."
NCZSO,30.374444,-109.6875,"Nacozari, Son."
CDMSL,22.401944,-99.599444,"Ciudad del Maíz, S.L.P."
CLNSI,24.8,-107.5,"Culiacancito, Sin."
BCBSI,25.816667,-107.916667,"Bacubirito, Sin."
SFRSI,26.073611,-108.779167,"Sufragio, Sin."
SBLSI,26.104167,-108.75,"San Blas, Sin."
HUYNR,21.9225,-104.511111,"Huaynamota, Nay."
TPCNL,25.683056,-100.303333,"Topo Chico, N.L."
MDRNL,26.022222,-99.196667,"Madero, N.L."
LERNL,25.497222,-99.527222,"Las Enramadas, N.L."
PBCDF,19.433333,-99.057778,"Planta de Bombeo Churubusco L., Cd. de Méx."
CBTGR,16.728333,-99.936667,"CBTIS 14, Gro."
COBMX,19.292222,-99.631667,"Observatorio de Estado de México, Méx."
HQCPB,18.772222,-98.540278,"Huaquechula, Pue."
TPTMX,19.660833,-99.961389,"San Andrés Tepetitlán, Méx."
IXHMX,19.52,-99.118611,"San Juan Ixhuatepec, Méx."
TZBSL,21.663889,-99.213333,"Tanzabaca, S.L.P."
XICMR,18.521111,-99.188333,"Xicatlacotla, Mor."
ZCAMC,19.805278,-101.795,"Zacapu, Mich."
ADUMC,17.966667,-102.2,"Adjuntas, Mich."
PONJL,20.385,-102.920833,"Poncitlán, Jal."
ENDHD,20.163889,-99.36,"Endhó, Hgo."
HMOGR,16.8,-99.9,"Hogar Moderno, Gro."
AEGGJ,20.533333,-100.683333,"Apaseo el Grande, Gto."
EAZDF,19.300556,-99.151944,"Estadio Azteca, Cd. de Méx."
SMICP,15.775,-92.239444,"San Miguel, Chis."
RBTDF,19.296111,-99.194167,"Rebombeo Bosque Tlalpan, Cd. de Méx."
K26MX,19.659722,-99.951944,km 0 + 262
GCNDF,19.413333,-99.013333,"km 6+250 (Gran Canal), Cd. de Méx."
OCSDF,19.316389,-99.096389,"Organismo de Cuenca AVM Sur, Cd. de Méx."
PICCP,17.606667,-92.12,"Pichucalco, Chis."
COOCP,16.2,-92.1,"Observatorio de Comitán, Chis."
MAGDF,19.216667,-99.283333,"Monte Alegre, Cd. de Méx."
AGTCH,26.9,-106.8,"Agostadero, Chih."
SJQSI,24.75,-107.383333,"San Joaquín, Sin."
AQECP,15.783333,-91.911111,"Aquespala, Chis."
ABAYC,20.649444,-89.681111,"Abala, Yuc."
ACJPB,19.0625,-97.934167,"Acajete, Pue."
BACCH,28.771667,-107.255556,"Bachíniva, Chih."
PRQHD,19.963056,-99.310833,"Requena, Hgo."
TMCCH,28.95,-107.85,"Temósachic, Chih."
MRSZC,22.306944,-103.561667,"Monte Escobedo, Zac."
MAROX,17.45,-95.483333,"María Lombardo, Oax."
SBRNL,26.341389,-99.94,"Sombreretillo, N.L."
GGNSI,26.05,-107.85,"Guaguana, Sin."
ATCHD,21.016667,-98.333333,"Atlapexco, Hgo."
ZMPHD,20.663333,-99.501111,"Ing. Fernando Hiriart Balderrama, Hgo."
CGRGR,16.733333,-99.116667,"Cruz Grande, Gro."
CNLGR,16.47,-98.411944,"Cuajinicuilapa, Gro."
K16CH,28.2,-105.6,"km 16+100, Chih."
SLPGJ,21.3,-100.516667,"San Luis de la Paz, Gto."
LGLJL,22.068056,-103.396389,"La Gloria, Jal."
BTQBN,32.33,-115.04,"Batáquez, B.C."
AGSAG,21.895,-102.309722,"Aguascalientes, Ags."
JCQAG,22.121667,-102.356944,"Jocoque, Ags."
GUAJL,20.672778,-103.373889,"Guadalajara Centro, Jal."
PPNVC,20.45,-97.316667,"Papantla, Ver."
CHIMC,19.7,-100.55,"Ciudad Hidalgo, Mich."
MNZCM,19.044444,-104.318333,"Manzanillo, Col."
ANVAG,22.188611,-102.466944,"Cincuenta Aniversario, Ags."
HCHOX,17.583333,-96.5,"Humo Chico, Oax."
TIZYC,21.158611,-88.1725,"Tizimín, Yuc."
MORZC,21.2125,-103.363889,"Mezquital del Oro, Zac."
PCNVC,18.105556,-94.330556,"PB1 de La Cangrejera, Ver."
JLNVC,19.816667,-97.3,"Jalacingo, Ver."
JALVC,17.95,-94.666667,"Jaltipán, Ver."
GZAVC,20.455556,-97.080556,"Gutiérrez Zamora, Ver."
SPESO,27.025833,-109.623611,"San Pedro, Son."
HMTTL,19.315833,-97.911111,"Huamantla, Tlax."
PMOSO,29.2125,-110.725556,"Ing. Rodolfo Félix Valdés, Son."
MICSL,22.12,-99.159444,"Micos, S.L.P."
PBCSL,21.879722,-100.820556,"Peña Blanca, S.L.P."
AOBSO,27.8225,-109.8925,"Álvaro Obregón, Son."
SJRQT,20.376389,-99.997778,"San Juan del Río, Qro."
TPYPB,19.489167,-97.491944,"Tepeyahualco, Pue."
SJTGR,17.9,-99.5,"San Juan Tetelcingo, Gro."
ECMGR,18.885,-99.898889,"EL camarón (arroyo), Gro."
CDRAG,21.9975,-102.676944,"La Codorniz, Ags."
YOSOX,17.724444,-97.826111,"Yosocuta, Oax."
UHGOX,16.45,-94.833333,"Unión Hidalgo, Oax."
HDLOX,17.808333,-97.766667,"Huajuapan de León, Oax."
GALNL,24.833333,-100.083333,"Galeana, N.L."
PUJSL,21.847222,-98.939722,"El Pujal, S.L.P."
GLNGJ,20.439167,-101.7425,"La Golondrina, Gto."
LRSDR,24.9,-106,"Las Rusias, Dgo."
ABSGJ,20.433333,-101.516667,"Abasolo, Gto."
LBEMX,19.383333,-100.075833,"Los Berros, Méx."
OBSMX,19.616667,-99.193611,"San Martín Obispo, Méx."
GSEQT,0,0,"Guadalupe Septién, Qro."
PUCMC,19.621389,-100.684167,"Pucuato, Mich."
OHCHD,20.8,-98.6,"Ohuesco, Hgo."
EFRGR,18.2,-98.4,"El Fraile, Gro."
PMLDF,19.365278,-99.126389,"Planta de Bombeo Municipio Libre, Cd. de Méx."
TPJDF,19.199444,-99.135833,"Topilejo, Cd. de Méx."
SQICP,16.4125,-91.358333,"San Quintín, Chis."
IXCCP,16.1,-91.083333,"Ixcán, Chis."
CHMCP,15.75,-92.283333,"Chicomuselo, Chis."
GUACH,26.816667,-107.066667,"Guachochic, Chih."
RDRCM,19.223333,-103.725278,"Radar, Col."
PNGCL,28.706667,-100.5325,"Piedras Negras, Coah."
CLVAG,21.826667,-102.189167,"Calvillo, Ags."
EGLGR,18.703056,-100.671111,"El Gallo, Gro."
CSRBN,32.243056,-116.584444,"Carmen Serdán, B.C."
PLNBS,24.066667,-109.983333,"Los Planes, B.C.S."
YHLHD,20.9,-98.4,"Yahualica, Hgo."
PXTDF,19.331944,-99.143056,"Planta Xotepingo, Cd. de Méx."
DDFDF,19.431111,-99.131389,"Gobierno del D.F., Cd. de Méx."
MXCBN,32.39,-115.27,"Mexicali, B.C."
RQTSL,21.425,-98.888611,"Requetemu, S.L.P."
TDMQT,20.5,-100.283333,"ITESM Campus Qro., Qro."
VCMSO,27.643611,-110.289722,"Vícam, Son."
HERNL,25.897778,-99.400833,"Los Herrera, N.L."
LIBVC,20.051944,-96.978333,"Libertad, Ver."
PFBMX,19.829167,-99.790278,"Francisco José Trinidad Fabela, Méx."
SBNCA,18.972778,-91.175833,"Sabancuy, Camp."
MAPCP,15.45,-92.883333,"Mapastepec, Chis."
OCMGJ,21.633333,-101.516667,"Ocampo, Gto."
CCPSO,30.330556,-110.706111,"Cucurpe, Son."
BTPCH,27.033611,-107.723611,"Batopilas, Chih."
SDATP,22.784444,-98.869444,"Saca de Agua, Tamps."
ATEJL,20.723056,-102.34,"Atemajac, Jal."
AGZCH,28.481667,-107.482778,"Abraham González, Chih."
TLGHD,20.083333,-98.369444,"Tulancingo, Hgo."
ACTJL,20.424444,-103.591111,"Acatlán, Jal."
PPLGR,18.016667,-98.9,"Papalutla, Gro."
SANBS,23.8,-110.05,"San Antonio, B.C.S."
ERCTP,22.605,-98.691667,"Estudiante Ramiro Caballero Dorantes, Tamps."
CCRSO,27.416667,-109.625,"Cocoraque, Son."
MXLGR,17.8,-99.616667,"Mexcala, Gro."
COLMX,19.101667,-100.183333,"Colorines, Méx."
SNASO,30.540833,-111.116389,"Santa Ana, Son."
CHIPB,18.516111,-98.579167,"Chietla, Pue."
PCHDF,19.413056,-99.2,"Planta Chapultepec, Cd. de Méx."
TIESL,21.629444,-100.548333,"La Muñeca, S.L.P."
ASCNL,24.321944,-99.911667,"La Ascensión, N.L."
GNGBS,27.966667,-114.05,"Guerrero Negro, B.C.S."
CHUCH,28.570556,-106.167778,"Chihuahua, Chih."
SJEGR,17.139444,-100.472778,"San Jerónimo, Gro."
CONYC,21.078889,-89.501111,"Conkal, Yuc."
SLBMX,19.591667,-99.741667,"San Bartolo del Llano, Méx."
XXHGR,17.903889,-98.488333,"Xochihuehuetlán, Gro."
LBYDR,23.516667,-104.75,"Las Bayas, Dgo."
ADLCL,28.344444,-100.837222,"Allende, Coah."
BARSL,21.4,-99,"Buenos Aires, S.L.P."
ITOOX,0,0,"Instituto Tecnológico de Oaxaca, Oax."
ARCGR,18.316944,-100.28,"Arcelia, Gro."
LDGGR,16.76,-99.235,"Las Vigas, Gro."
IOBGR,18.340556,-99.5375,"Observatorio de Iguala, Gro."
RYNTP,26.166667,-98.883333,"S-J-2-9 Reynosa, Tamps."
TCNCH,27.579167,-105.366667,"Tecuan, Chih."
SJUNL,25.545,-99.839722,"San Juan, N.L."
CMTDF,19.469722,-99.1375,"Cien Metros, Cd. de Méx."
GTOGJ,21.012222,-101.265,"Guanajuato, Gto."
MXQHD,20.2375,-99.218611,"Mixquiahuala, Hgo."
PBTDF,19.435556,-99.170556,"Planta de Bombeo Tizoc, Cd. de Méx."
CACCP,15.35,-92.716667,"Cacaluta, Chis."
ETCSO,26.906944,-109.629167,"Etchojoa, Son."
SACTL,0,0,"Santa Ana Chautempan, Tlax."
DRDSI,24.316667,-107.35,"El Dorado, Sin."
RCMDF,19.4,-99.17,"Radio Comunicación, Cd. de Méx."
OCOCP,17.220556,-93.150556,"Ocotepec, Chis."
VDSGJ,20.388611,-101.182222,"Valle de Santiago, Gto."
PDTVC,19.041667,-96.140833,"Paso del Toro, Ver."
SJUMC,19.839444,-102.651389,"San Juanico, Mich."
MAGGR,16.895833,-99.887778,Magallanes (4 Etapa FOVISSSTE) Gro.
SFBNL,24.8,-100,"San Francisco Berlanga, N.L."
TLCVC,0,0,"Tlacotalpan, Ver."
HUAMR,18.608333,-99.424167,"Huajintlán, Mor."
SCRJL,21.038889,-103.429167,"San Cristóbal 2, Jal."
OYAPB,19.7,-97.533333,"Oyameles, Pue."
JPRSO,26.801944,-109.701944,"Júpare, Son."
K21GR,16.966667,-99.783333,"km 21, Gro."
RDODR,25.181944,-104.558333,"Rodeo, Dgo."
EZATB,17.75,-91.75,"Emiliano Zapata, Tab."
TCMCM,18.925556,-103.882778,"Tecomán, Col."
ZXTHD,20.652778,-98.647222,"Zacualtipán, Hgo."
OBSTB,17.98,-92.929444,"Observatorio de Villa Hermosa, Tab."
TEATB,17.566667,-92.966667,"Teapa, Tab."
SJHMX,19.238333,-99.764722,"San Juan de las Huertas, Méx."
DVSSO,29.615556,-109.469444,"Divisaderos, Son."
PSNDF,19.468889,-99.163889,"Planta de Bombeo Nueva Santa María, Cd. de Méx."
SDHSL,22.633333,-101.683333,"Salina de Hidalgo, S.L.P."
ESTMC,20.116667,-102.370833,"La Estanzuela, Mich."
EN2SO,28.949167,-109.639722,"Novillo 2, Son."
BSCSO,26.95,-109.666667,"Basconcobe, Son."
PVAHD,20.435556,-99.375833,"Vicente Aguirre, Hgo."
SIMCP,17.141667,-92.713889,"Simojovel, Chis."
PLMQT,20.516389,-100.163333,"La Palma, Qro."
STDOX,18.05,-96.55,"Santo Domingo, Oax."
STOCL,25.376389,-101.016667,"Saltillo, Coah."
LLOMX,19.288333,-99.556667,LA LOMA
CUUMC,20.253889,-102.586389,"Cumuato, Mich."
PTRDF,19.509167,-99.190278,"Planta de Tratamiento Rosario, Cd. de Méx."
MRGTP,26.204722,-98.925556,"Marte R. Gómez, Tamps."
CHCSO,27.776667,-109.904444,"Chiculi, Son."
TNTCH,29.5625,-107.384167,"El Tintero, Chih."
PE¥CP,17.408333,-93.45,"Peñitas, Chis."
TRPCM,19.2775,-103.663333,"Trapiche, Col."
VZSBS,27.983333,-114.133333,"Vizcaíno, B.C.S."
TRNSO,30.4,-111.533333,"Trincheras, Son."
PECAG,22.141111,-102.417222,"Plutarco Elías Calles, Ags."
NZSDR,25.225556,-104.113889,"Nazas, Dgo."
RSVHD,20.140833,-99.248056,"Río Salado Virgen, Hgo."
VMAOX,18.233333,-96.5,"Vertedor M. Alemán, Oax."
PNLDR,25.652222,-104.528889,"Peñoles, Dgo."
TLYMR,18.9,-98.9,"Tlayacapan, Mor."
LCDSO,30.437778,-109.378889,"Lázaro Cárdenas, Son."
NRJSL,22.523333,-99.32,"Naranjos, S.L.P."
DRGDR,24.033333,-104.666667,"Durango, Dgo."
FIMCH,28.166111,-105.628889,"Francisco I. Madero, Chih."
CPPTL,19.586111,-98.563889,"Calpulalpan, Tlax."
VJZAG,22.097778,-102.0675,"Villa Juárez, Ags."
JMYJL,20.293889,-102.705833,"Jamay, Jal."
CRTGJ,20.483333,-100.95,"Cortázar, Gto."
SJSQT,20.3625,-100,"San José, Qro."
SELCP,16.135556,-91.485556,"Santa Elena, Chis."
BLMBN,32.195278,-116.485556,"Belén, B.C."
CNNSO,30.98,-110.290833,"Cananea, Son."
EZPMC,20,-102.566667,"Emiliano Zapata, Mich."
JTUZC,23.248611,-103.804722,"Jiménez de Teul, Zac."
IUJTL,19.3,-98.6,"La Ahualaja, Tlax."
JARMC,19.958333,-102.601944,"Jaripo, Mich."
LOLMC,19.210833,-102.865556,"Los Olivos, Mich."
SCRMC,20.208333,-102.464722,"San Cristóbal, Mich."
TEMGJ,20.6,-101.3,"Temascatío, Gto."
JODSI,26.437222,-108.712222,"El Sabino, Sin."
CDVSL,21.983333,-99.016667,"Ciudad Valles, S.L.P."
CATCP,16.2,-91.3,"Cataratas, Chis."
UDSPB,20.176389,-98.050833,"Universidad de la Sierra, Pue."
CMIQT,20.513333,-100.38,"Campo Militar, Qro."
CYQGR,17.376944,-101.054444,"Coyuquilla, Gro."
TMCMR,18.778056,-98.786944,"Temoac, Mor."
MNLAG,21.8075,-102.788333,"Media Luna, Ags."
TARGJ,20.283333,-100.75,"Tarimoro, Gto."
SACDR,25.225,-105.443056,"Salomé Acosta, Dgo."
ELCZC,23.693333,-103.098333,"El Cazadero, Zac."
PLMDF,19.420278,-99.068333,"Planta de Bombeo López Mateos, Cd. de Méx."
NCHSO,27.076944,-109.542778,"Nachuquis, Son."
TEMMR,18.9,-99.2,"Temixco, Mor."
RODMR,18.765278,-99.331389,"El Rodeo, Mor."
OBSMR,18.908889,-99.219167,"Observatorio de Morelos, Mor."
CHMCA,19.361667,-90.72,"Champotón, Camp."
CROCH,27.283333,-108,"Cerocahui, Chih."
ACANR,22.49,-105.354167,"Acaponeta, Nay."
PRSGJ,20.867222,-101.287778,"La Purísima, Gto."
EMUTB,17.98,-92.916667,"Villahermosa Muelle, Tab."
MPMDR,25.816667,-103.85,"Mapimí, Dgo."
PCTMX,19.636944,-99.010278,"Planta Chiconautla 1, Méx."
ZMITL,19.321944,-98.267778,"Veintitres Zona Militar, Tlax."
TENTB,17.468056,-91.428611,"Tenosique, Tab."
OXOTB,17.391667,-92.753333,"Oxolotán, Tab."
ATBGJ,20.499167,-101.625556,"Agua Tibia, Gto."
DARNL,23.676389,-100.172778,"Doctor Arroyo, N.L."
SLPSL,22.148056,-101.019167,"San Luis Potosí, S.L.P."
SGRJL,21.3,-102.5,"San Gaspar de los Reyes, Jal."
SMGSL,21.8,-99,"San Miguel, S.L.P."
CUACM,19.325,-103.6,"Cuauhtémoc, Col."
STRSL,22.02,-99.055833,"Santa Rosa, S.L.P."
PALAG,21.916667,-101.966667,"Palo Alto, Ags."
CYOYC,21.5125,-87.676667,"El Cuyo, Yuc."
COMCP,16.25,-92.133333,"Comitán, Chis."
SMAJL,21.05,-102.4,"San Miguel el Alto, Jal."
ALTCP,16.733333,-92.038889,"Altamirano, Chis."
ACACP,16.552778,-92.804167,"Acala, Chis."
ASTOX,16.009167,-95.698889,"Astata, Oax."
HNGBN,32.516389,-116.302778,"El Hongo, B.C."
TCTBN,32.566667,-116.633333,"Tecate, B.C."
LFGCL,28.82,-100.832222,"La Fragua, Coah."
OBSQT,20.566667,-100.366667,"Observatorio de Querétaro, Qro."
MOCYC,21.105556,-89.4375,"Mococha, Yuc."
CHLGR,17.608611,-99.175833,"Chilapa, Gro."
DTCNL,25.9,-99.2,"Doctor Coss, N.L."
VZRCH,27.454444,-105.806944,"Valle de Zaragoza, Chih."
ROMNR,22.119722,-105.211667,"Rosa Morada, Nay."
CQMCM,19.2125,-103.804167,"Coquimatlán, Col."
OCTSL,21.849722,-100.762222,"Ojo Caliente, S.L.P."
CMDCM,0,0,"Coliman M.D., Col."
TCAJL,21.45,-102.583333,"Teocaltiche, Jal."
NGLSO,31.318889,-110.947222,"Nogales, Son."
MOCMC,20.127222,-101.724444,"Melchor Ocampo, Mich."
PBADF,19.379167,-99.100278,"Planta de Bombeo Aculco, Cd. de Méx."
FIYYC,21.048889,-89.642778,"Fiuady, Yuc."
SGOZC,24.290833,-103.506111,"Santiago, Zac."
BECYC,19.883056,-89.218889,"Becanchén, Yuc."
RENTP,25.647222,-98.106667,"S-J-3-47 Reynosa, Tamps."
PJMTP,24.2475,-99.555833,"Pedro José Méndez, Tamps."
EPOTB,18.043611,-92.814722,"El Porvenir, Tab."
RNAPB,20.116111,-97.401667,"Rancho Nuevo (Ayotoxco), Pue."
GRBNL,25.786667,-99.182778,"General Bravo, N.L."
GRDMX,19.578889,-98.916944,"La Grande, Méx."
SRDDR,26.084444,-105.566667,"Sardinas, Dgo."
CASCP,16.308333,-92.479167,"Cascajal, Chis."
CRTJL,21.497778,-101.7375,"El Cuarenta, Jal."
ELPZC,22.611389,-104.050833,"El Platanito, Zac."
TMZDR,24.933333,-106.975,"Tamazula, Dgo."
SMASL,21.366667,-98.65,"San Martín, S.L.P."
PAJNR,22.377778,-105.020833,"Pajaritos, Nay."
CUEMR,18.9,-99.2,"Cuernavaca, Mor."
APSGJ,20.454167,-100.620833,"Apaseo el Alto, Gto."
RLAYC,21.571667,-88.160556,"Río Lagartos, Yuc."
OSTOX,16.5,-94.4,"Ostuta, Oax."
ECRVC,0,0,"El Carril, Ver."
JNCMR,18.7,-98.8,"Jonacatepec, Mor."
HUIMR,19.028889,-99.015833,"Huitzilac, Mor."
LCRMC,18.767222,-102.115278,"Las Cruces, Mich."
CPAMC,20.001667,-102.861389,"Copándaro, Mich."
CMNMC,18.5,-100.9,"Caimanera, Mich."
VDTVC,20.023056,-96.631944,"Vega de Alatorre, Ver."
DORTP,26.036667,-98.576667,"S-J-2-38 Díaz Ordaz, Tamps."
SDOCP,15.775,-92.105556000000007,"Santo Domingo, Chis."
BSSCH,28.208889,-108.206389,"Basaseachi, Chih."
PAGCH,26.546389,-105.254167,"Pico del Águila, Chih."
CNAPB,19.022778,-98.198611,"Conagua, Pue."
LDTDR,0,0,"Lerdo de Tejada, Dgo."
PLEDF,19.336944,-99.076389,"Planta de Tratamiento La Estrella, Cd. de Méx."
TAPVC,19.45,-96.966667,"Tapachapan, Ver."
CTJCL,25.533333,-103.454167,"Colonia Torreón Jardín, Coah."
RGRVC,17.283333,-94.366667,"Río Grande, Ver."
RVJVC,19.445278,-96.779167,"Rancho Viejo, Ver."
RYATP,26.079722,-98.285833,"S-J-3-42 Reynosa, Tamps."
MATTP,25.833333,-97.522778,"Matamoros, Tamps."
OACOX,17.066667,-96.733333,"Oaxaca Centro, Oax."
HECCA,20.184167,-90.105556000000007,"Hecelchakan, Camp."
MHGTP,24.2525,-99.434444,"Miguel Hidalgo, Tamps."
TAPTB,17.466667,-92.816667,"Tapijulapa, Tab."
OAXMR,18.900556,-98.901389,"Oaxtepec, Mor."
TRTSI,23.083333,-105.916667,"Tortugas, Sin."
SFLDR,24,-104.598889,"San Felipe, Dgo."
EBNSL,22.210278,-98.390556,"Campamento Ébano, S.L.P."
TJCMX,19.443611,-98.900833,"El Tejocote, Méx."
SAUJL,21.35,-101.85,"La Sauceda, Jal."
QLTSI,23.5625,-106.466667,"Quelite, Sin."
CPLVC,18.856667,-96.291111,"Capulines, Ver."
CUIOX,17.8,-96.95,"Cuicatlán, Oax."
TELDF,19.333889,-99.246389,"Tanque el Lienzo, Cd. de Méx."
LADGJ,20.610278,-100.525833,"Las Adjuntas, Gto."
CAZGR,16.855,-99.863056,"Costa azul, Gro."
IXCMX,19.5675,-99.769444,"Ixtlahuaca, Méx."
TPLSI,25.616667,-109.05,"Topolobampo, Sin."
ALTSO,30.716667,-111.733333,"Altar, Son."
SABMC,19.622778,-100.669444,"Sabaneta, Mich."
CANYC,20.463056,-89.081667,"Cantamayec, Yuc."
TEHOX,16.3,-95.2,"Tehuantepec, Oax."
IRPGJ,20.683333,-101.35,"Irapuato, Gto."
CACGR,16.805556,-99.908333,"Costa Azul, Gro."
TAMCP,14.9,-92.266667,"Tapachula (Malpaso), Chis."
BRRTP,24.1025,-99.215,"El Barretal, Tamps."
MADCL,25.766667,-103.266667,"Madero, Coah."
SJQMX,19.435278,-99.227778,"San Joaquín, Méx."
XDJPB,20.277222,-97.956944,"Xicotepec de Juárez, Pue."
SJCBS,23.05,-109.666667,"San José del Cabo, B.C.S."
TULTP,23.001111,-99.7125,"Tula, Tamps."
GVCDR,23.961111,-104.753056,"Presidente Guadalupe Victoria, Dgo."
ARCVC,18.583333,-95.4375,"Ángel R. Cabada, Ver."
RSLTP,22.933333,-98.616667,"Rosillos, Tamps."
TOMTP,26.183333,-98.933333,"Toma Sur, Tamps."
BVCSO,29.716667,-110.15,"Baviácora, Son."
CXTJL,21.066667,-103.45,"Cuixtla, Jal."
TEHPB,18.479167,-97.395556,"Tehuacán, Pue."
BORDR,26.236667,-104.483333,"Benjamín Ortega, Dgo."
ALMSO,27.021667,-108.937778,"Álamos, Son."
PMTMX,19.851389,-98.940278,"Manantial, Méx."
IZMPB,18.610833,-98.466389,"Izúcar de Matamoros, Pue."
GARYC,20.984167,-89.658056,"Organismo de Cuenca Península de Yucatán, Yuc."
RALVC,18.716667,-95.627778,"Radar Alvarado, Ver."
PROYC,21.275833,-89.653889,"Progreso, Yuc."
RIBTP,25.966667,-98,"Río Bravo, Tamps."
PVLTP,24.183333,-99.583333,"Puerto de Valles, Tamps."
TLXTL,19.320833,-98.241667,"Tlaxcala, Tlax."
ELNCP,15.495833,-92.95,"El Novillero, Chis."
TICMR,18.794167,-99.1,"Ticumán, Mor."
CBLNL,25.683333,-100.416667,"Cola de Caballo, N.L."
JLPSI,24.571667,-106.807222,"José López Portillo, Sin."
VBRMX,19.2075,-100.18,"Valle de Bravo, Méx."
TTLMX,19.4525,-99.283056,"Totolica (hidro), Méx."
ALPMR,18.731111,-98.689722,"Alpanocán, Mor."
GRCCH,26.813056,-107.072778,"Guerachi, Chih."
LRGNL,26.2,-99.5,"Loma Larga, N.L."
CNTDR,24.5,-104.75,"Canatlán, Dgo."
P.CerroPrieto,24.938889,-99.400556,"Cerro Prieto, N.L. OCRB*"
PTAOX,15.666667,-96.483333,"Puerto Ángel, Oax."
SROJL,20.816111,-104.079444,"Santa Rosalía, Jal."
RYONL,25.018056,-100.073611,"Rayones, N.L."
LPIOX,16.4,-95.3,"Las Pilas, Oax."
SPTTB,17.791667,-91.158333,"San Pedro, Tab."
EXPJL,20.733333,-103.333333,"La Experiencia, Jal."
SPGDR,25.564167,-104.2925,"San Pedro del Gallo, Dgo."
BNSBN,32.34,-115.06,"Benassini, B.C."
CAHCP,14.720833,-92.272222,"Cahuacán, Chis."
SRSJL,20.908889,-103.705556,"Santa Rosa, Jal."
YAHJL,21.181389,-102.885833,"Yahualica, Jal."
TORNL,0,0,"Las Torres, N.L."
PRSNL,26.5,-99.525,"Paras, N.L."
K89CH,28.5,-105.6,"km 89+500, Chih."
CIHJL,19.233333,-104.566667,"Cihuatlán, Jal."
COLCP,16.1,-91.2,"Colorado, Chis."
RVEOX,16.102778,-97.725,"Río Verde, Oax."
CMRTP,26.416667,-99.25,"Mier, Tamps."
TEPNR,21.489444,-104.891944,"Tepic, Nay."
RVDSL,21.931389,-99.995,"Río Verde, S.L.P."
TIRMC,19.48,-101.466667,"Tiríndaro, Mich."
SARBS,24.066667,-109.983333,"El Sargento, B.C.S."
IHTVC,19.033333,-97,"Ixhuatlán del Café, Ver."
SCRSI,24.484722,-106.952778,"Santa Cruz, Sin."
SLVGJ,20.214167,-100.884722,"Salvatierra, Gto."
ELCCP,16.777778,-92.122222,"El Carmen, Chis."
VRGJL,20.6,-103.8,"La Vega, Jal."
CHICP,16.941667,-93.100556,"Manuel Moreno Torres, Chis."
ATTMX,19.443611,-99.773611,"Atotonilco, Méx."
MIAMR,18.7,-99.4,"Miacatlán, Mor."
ALRBN,32.444722,-116.908333,"Abelardo L. Rodríguez, B.C."
ZPTJL,22.05,-103.05,"El Zapote, Jal."
CLAMX,19.256944,-98.894444,"Chalco, Méx."
AZTTP,22.498611,-98.614722,"Aztecas, Tamps."
SSEMC,19.49,-100.566667,"San Sebastián, Mich."
SPENR,21.9875,-105.141667,"San Pedro, Nay."
TJNBN,32.449444,-116.866667,"Tijuana, B.C."
AVECP,16.591667,-90.683333,"Agua Verde, Chis."
LDCSI,26.844722,-108.367778,"Luis Donaldo Colosio, Sin."
CDACL,29.327778,-100.950278,"Ciudad Acuña, Coah."
VCOCP,16.166667,-93.25,"Villa Corso, Chis."
CHSPB,18.109722,-98.567778,"Chila de la Sal, Pue."
SJOTB,17.5,-92.916667,"San Joaquín, Chis."
TENTL,19.145833,-98.201389,"Tenancingo, Tlax."
ACHZC,22.327222,-103.225278,"Achimec, Zac."
RVOGR,16.8875,-99.951111,"Revolución (Jardin Mangos), Gro."
CYLDF,19.484167,-99.09,"Coyol, Cd. de Méx."
RCSNL,25.25,-100.026389,"Raíces, N.L."
LVEOX,16.566667,-94.75,"La Venta, Oax."
TANSL,21.683333,-99.316667,"Tanlacut, S.L.P."
CLYGJ,20.533333,-100.816667,"Celaya, Gto."
PXYCA,18.932778,-90.598611,"Pixoyal, Camp."
K79SO,27.5,-109.9,"km 79 de Canal Alto, Son."
FREZC,23.173889,-102.890833,"Fresnillo, Zac."
NACTB,18.133333,-93,"Nacajuca, Tab."
EUSCP,16.266667,-91.374167,"Euseba, Chis."
YEPCH,29.666667,-108.166667,"Yepachic, Chih."
SFOZC,24.322222,-102.884444,"San Francisco, Zac."
C6CSO,27.410278,-109.979722,"Calle Seiscientos y Canal Bajo, Son."
ORZVC,18.85,-97.1,"Orizaba, Ver."
CNSAG,21.896389,-102,"Los Conos, Ags."
ELLJL,20.361667,-103.207778,"El Llano, Jal."
HLOOX,17.8,-97.783333,"Observatorio de Huajuapan de León, Oax."
BRTAG,21.738611,-102.184167,"San Bartolo, Ags."
RGRZC,23.816944,-103.025833,"Río Grande, Zac."
K25SO,27.642222,-108.8725,"km 25 de Canal Alto, Son."
JIMTP,24.211944,-98.484722,"Jiménez, Tamps."
GDLSL,22.6175,-100.398056,"Guadalcázar, S.L.P."
ORGSO,29.229722,-110.706111,"El Oregano, Son."
IMRSO,30.761667,-110.886944,"Imuris, Son."
LPEVC,17.416667,-94.916667,"Las Perlas, Ver."
CHOSI,26.733333,-108.333333,"Choix Pueblo, Sin."
BDDPB,18.9125,-98.108611,"Manuel Ávila Camacho, Pue."
CELNL,24.976111,-99.439444,"Carmen de los Elizondo, N.L."
HUAPB,20.176389,-98.050833,"Huauchinango, Pue."
PSCDF,19.299167,-99.023056,"Planta de Tratamiento Santa Catarina, Cd. de Méx."
PRRDF,19.513056,-99.154444,"Planta de Tratamiento Río Remedios, Cd. de Méx."
GAVNR,20.889722,-105.136667,"Gaviotas, Nay."
HUICP,15.133333,-92.472222,"Huixtla, Chis."
SANJL,20.902222,-104.064722,"San Andrés, Jal."
PILTP,24.138333,-98.901667,"Pilón, Tamps."
HORSO,27.713056,-109.904167,"Hornos, Son."
RBRBS,23.583333,-109.55,"La Ribera, B.C.S."
PETGR,17.984444,-99.433333,"Petaquillas, Gro."
TEPMC,20.000278,-100.229167,"Tepuxtepec, Mich."
GZANL,26.483333,-100.066667,"Garza Ayala, N.L."
CICYC,21.03,-89.638056,"Centro de Investigación Científica, Yuc."
LDTGR,18.363333,-99.503056,"Laguna de Tuxpan, Gro."
VGRNL,25.8,-100,"Villa García, N.L."
GONTB,17.975,-93,"González, Tab."
RFRTP,22.845278,-99.004167,"Río Frío, Tamps."
BDCTB,17.433333,-91.483333,"Boca del Cerro, Tab."
CARQT,20.604167,-100.435556,"Carrillo, Qro."
YCRSO,28.371389,-108.927778,"Yécora, Son."
GABTB,17.966667,-92.916667,"Gaviotas 2, Tab."
MBLMX,19.477778,-99.220833,"Molino Blanco, Méx."
CRUNL,24.783611,-99.6975,"Crucitas, N.L."
LMRGR,16.855,-99.918889,"La Mira, Gro."
PRGHD,20.359722,-99.329444,"Javier Rojo Gómez, Hgo."
MARCP,15.583333,-93.066667,"Margaritas, Chis."
AREZC,21.766944,-102.968611,"Arellano, Zac."
ARISO,30.07,-109.088611,"Aribabi, Son."
OJ1CH,0,0,OJINAGA (RIO BRAVO AGUAS ARRIBA)
PAPOX,18.166667,-96.083333,"Papaloapan, Oax."
SATMC,18.273889,-101.9175,"San Antonio, Mich."
K68DR,0,0,"km 68+000, Dgo."
TSLDF,19.359722,-99.264444,"Trif. Santa Lucía, Cd. de Méx."
AMSCL,29.446944,-101.057222,"Internacional La Amistad, Coah."
SJCTL,19.154167,-98.245833,"San Jacinto, Tlax."
LIBPB,19.457222,-97.691111,"Libres, Pue."
NEXPB,20.168333,-97.984722,"Nexapa, Pue."
PUOPB,19.05,-98.166667,"Observatorio de Puebla, Pue."
CSTCM,19.215278,-103.72,"El Costeño, Col."
ENLBN,32.411111,-115.15,"Ejido Nuevo León, B.C."
TCOVC,19.383333,-96.966667,"Teocelo, Ver."
LCEVC,18.229722,-95.445278,"La Ceibilla, Ver."
ATXPB,18.921111,-98.420833,"Atlixco, Pue."
ECSNL,25.5175,-100.198056,"El Cerrito, N.L."
PINJL,22.6,-103.916667,"El Pinito, Jal."
CDVMC,19.5,-102.4,"Chorros del Varal, Mich."
RVGCH,26.466667,-106.383333,"El Vergel, Chih."
IDOVC,19.404167,-96.554167,"Ídolos, Ver."
AFRPB,18.9425,-98.135833,"Africam, Pue."
MUNYC,20.493333,-89.711667,"Muna, Yuc."
AJSDF,19.218611,-99.210278,"Ajusco, Cd. de Méx."
MZNVC,19.933333,-96.833333,"Misantla, Ver."
SLDSO,30.755,-110.888889,"Salado, Son."
RAYSO,29.707778,-110.570556,"Rayón, Son."
ZGZCL,28.487778,-100.912778,"Zaragoza, Coah."
LREZC,23.18,-103.216944,"Gobernador Leobardo Reynoso, Zac."
SNLSI,24.815,-107.151389,"Sanalona, Sin."
HJTPB,19.101111,-98.456111,"Huejotzingo, Pue."
SBANL,25.55,-100.016667,"San Bartolo, N.L."
CDEHD,0,0,"Canal de Endhó, Hgo."
GTVNL,26.224167,-99.485278,"General Treviño, N.L."
AHASL,22.4,-101.2,"Ahualulco, S.L.P."
HYTDF,19.308056,-99.2625,"Huayatla, Cd. de Méx."
CNCDR,24.871944,-103.698889,"Cuencamé, Dgo."
EYQDF,19.3625,-99.286389,"El Yaqui, Cd. de Méx."
PSLDF,19.233333,-99.05,"Planta San Luis, Cd. de Méx."
PVCDF,19.285833,-99.126111,"Planta de Bombeo Villa Coapa, Cd. de Méx."
LADNL,26,-99.2,"Aldamas, N.L."
CRZGR,16.821944,-99.855,"La Cruz (Brisas), Gro."
DRGNL,25.75,-99.966667,"Doctor González, N.L."
PCGMX,19.743056,-99.181944,"Puente Colgante, Méx."
VCVJL,19.939722,-102.941667,"Vicente C. Villaseñor, Jal."
PNLGJ,21.105,-100.878333,"Peñuelitas, Gto."
ETRJL,20.904167,-104.020556,"El Trigo, Jal."
TLHDR,25.341111,-105.725,"Tepehuanes, Dgo."
BTEZC,22.824167,-102.953333,"Ramón López Velarde, Zac."
BCNSO,30.598889,-110.238611,"Bacanuchi, Son."
TRITL,19.3,-98,"La Trinidad, Tlax."
TCCSL,21.8,-99.1,"Tanchachín, S.L.P."
CARTB,17.808889,-93.413611,"Cárdenas, Tab."
CONTP,25.638889,-97.818333,"Control, Tamps."
ZACTL,19.219444,-98.243056,"Zacatelco, Tlax."
NNEPB,20.216667,-98.000556,"Necaxa, Pue."
TARMC,19.52,-101.45,"Tariácuri, Mich."
EGIMC,19.966667,-100.45,"El Gigante, Mich."
SPPDR,25.0375,-105.422222,"Santiago Papasquiaro, Dgo."
LVNDF,19.340556,-99.3,"La Venta, Cd. de Méx."
TNGDF,19.399167,-99.211667,"Triángulo, Cd. de Méx."
CEADF,19.516667,-99.1375,"Campamento Amealco, Cd. de Méx."
CGVDR,24.4375,-104.121111,"Ciudad Guadalupe Victoria, Dgo."
LRTBS,26.016667,-111.341667,"Loreto, B.C.S."
CRLCH,27.75,-107.633333,"Creel, Chih."
COIMC,19.629722,-101.259167,"Coíntzio, Mich."
TSNBS,23.433333,-110.216667,"Todos Santos, B.C.S."
TANYC,20.030278,-89.046944,"Tantaquín, Yuc."
CLRCM,18.998333,-103.883333,"Caleras, Col."
SRTGJ,20.3,-101.066667,"Santa Rita, Gto."
IGNCH,26.870833,-107.879167,"San Ignacio, Chih."
TECPB,18.878889,-97.7525,"Tecamachalco, Pue."
SCRCP,16.741667,-92.616667,"Puente Morelos (San Cristóbal Cabañas), Chis."
SAACP,17.566667,-92.35,"Salto de Agua, Chis."
ACNGJ,20.033333,-100.716667,"Acámbaro, Gto."
TORCL,25.541667,-103.45,"Observatorio de Torreón, Coah."
PATCP,0,0,"Patarat, Chis."
MNOMC,19.7,-101.2,"Morelia Norte, Mich."
VEGJL,20.596389,-103.845833,"Ing. Santiago Camarena, Jal."
LVEVC,19.725,-96.405556,"Laguna Verde, Ver."
VALYC,20.69,-88.204167,"Valladolid, Yuc."
TMOVC,17.571944,-94.163333,"Tierra Morada, Ver."
SLTSI,24.121944,-106.695833,"Ing. Aurelio Benassini Vizcaino, Sin."
BLNJL,21.830556,-103.783611,"Bolaños, Jal."
PCHJL,20.216667,-103.333333,"Pueblo Chapala, Jal."
PCCMX,19.65,-99.025,"Planta Chiconautla 2, Méx."
CTMDF,19.406389,-99.196111,"Central Tacubaya Met., Cd. de Méx."
DATDF,19.3,-99.205,"Desviación Alta, Cd. de Méx."
MALCP,17.178611,-93.598889,"Nezahualcóyotl, Chis."
CLNCH,27.410556,-105.371389,"Ing. Andrew Weiss, Chih."
ALUMR,18.735,-99.265833,"Alpuyeca, Mor."
CPUMC,19.55,-101.05,"Carrillo Puerto, Mich."
CHLMX,19.288333,-98.876111,"Chalco, Méx."
ACYCP,15.075,-92.733333,"Acacoyagua, Chis."
HGOVC,21.777222,-98.443889,"El Higo, Ver."
RCACP,17.348333,-93.552778,"Rómulo Calzada, Chis."
BVSCM,19.248611,-103.611389,"Buena Vista, Col."
HVJBS,26.322222,-112.004167,"Huerta Vieja, B.C.S."
CRNGJ,20,-101.383333,"Cerano, Gto."
PBLDF,19.486667,-99.119444,"Planta de Bombeo Linda Vista, Cd. de Méx."
FRNTP,26.366667,-98.802778,"Fuerte Ringold, Tamps."
MLNSO,29.183333,-110.783333,"El Molinito, Son."
BALTB,17.809722,-91.536389,"Balancán, Tab."
TEMOX,18.232222,-96.412222,"Presidente Alemán, Oax."
TLAJL,20.583333,-103.316667,"Tlaquepaque, Jal."
TCLVC,21.083333,-97.95,"Tlacolulan, Ver."
IZGDR,24.383333,-105.15,"Ignacio Zaragoza, Dgo."
LJTCH,26.6,-107.8,"Lajitas, Chih."
CHNVC,18.041667,-94.6625,"Chinameca, Ver."
MARQT,20.62,-100.23,"El Marqués, Qro."
CHIOX,16.583333,-94.816667,"Chicapa, Oax."
CHINL,25.7,-99.2,"Chinas, N.L."
TTAMR,18.833333,-99.279167,"Tetlama, Mor."
LDFMC,20.038333,-101.940833,"Laguna del Fresno, Mich."
AMEMC,19.926111,-101.661111,"Aristeo Mercado, Mich."
TULJL,20.7425,-102.433056,"El Tule, Jal."
CCUDF,19.346667,-99.180556,"Centro Universitario, Cd. de Méx."
BOQCP,16.641944,-93.15,"Boquerón, Chis."
RAUVC,20.157778,-96.713889,"El Raudal, Ver."
SRSSO,30.394722,-111.445278,"Santa Rosa 2, Son."
JLPJL,0,0,"Jalipa, Jal."
SBTVC,20.883333,-97.783333,"Sombrerete, Ver."
DPTCH,28.656944,-106.085278,"Ciudad Deportiva, Chih."
KM1OX,16.6,-95.2,"km 33+190, Oax."
XCTTP,23,-98.95,"Xicoténcatl, Tamps."
TCSSI,25.855556,-107.376389,"Tecusiapa, Sin."
SJNSI,25.3,-107.5,"San Juan, Sin."
CDALTAMIRANO,18.350556,-100.658333,"Ciudad ALTAMIRANO, GRO"
TPHNL,25.505278,-99.770833,"Tepehuaje, N.L."
GEEYC,20.986111,-89.612778,"Gerencia, Yuc."
CYTCL,25.542222,-103.469167,"Coyote, Coah."
ORZHD,21.166667,-98.6,"San Felipe Orizatlán, Hgo."
VTEVC,19.022222,-96.613889,"Villa Tejeda, Ver."
PMEMX,19.65,-99.941667,PUENTE MEXTEPEC
HSCHD,20.216667,-98.566667,"Huascas, Hgo."
TUXCP,16.761944,-93.1,"Tuxtla Oriente, Chis."
ELZBN,31.890278,-116.6025,"Emilio López Zamora, B.C."
AXOTL,19.237778,-98.159167,"Axotla, Tlax."
VGRTP,23.959444,-98.666389,"Vicente Guerrero, Tamps."
VCATP,25.906111,-97.804167,"Villa Cárdenas, Tamps."
VHMTP,25.7,-97.8,"Valle Hermoso, Tamps."
CHTSO,30.873333,-111.516389,"Cuauhtémoc, Son."
CANSO,27.011944,-109.495,"Casa del Ciano, Son."
EPLSO,27.95,-110.8,"Empalme, Son."
TSOSO,27.658333,-109.2125,"Tesocoma, Son."
IXTOX,16.583333,-95.1,"Ixtepec, Oax."
CAMNL,24.871944,-99.578889,"Camacho, N.L."
BRINL,25.395833,-99.545556,"Las Brisas, N.L."
ARRNL,24.1,-99.816667,"Aramberri, N.L."
ANHNL,27.24,-100.134444,"Anáhuac, N.L."
ALDNL,26.023611,-99.195833,"Los Aldamas, N.L."
AGLNL,25.094167,-99.086944,"Agualeguas, N.L."
VNDMX,19.382222,-99.334167,"El Venado, Méx."
CARNL,24.976111,-99.439444,"Carmen de los Elizondo Linares, N.L."
GMCSI,25.469444,-108.091667,"Guamúchil, Sin."
VTRGR,18.295833,-99.466111,"Valerio Trujano, Gro."
CCOCH,27.685556,-105.171389,"Ciudad Camargo, Chih."
SNTBS,23.45,-109.716667,"Santiago, B.C.S."
LAUVC,18.25,-95.35,"Lauchapan, Ver."
GANSL,21.906944,-99.239444,"Gallinas, S.L.P."
BCRSO,30.355278,-108.931667,"Bacerac, Son."
TLAZC,21.560556,-102.786389,"Tlalchichila, Zac."
MAYPB,19.010556,-98.231111,"Mayorazgo 21 Poniente, Pue."
OMEGR,16.683333,-98.433333,"Ometepec, Gro."
MGATP,26.374167,-99.040833,"S-J-1-2 Miguel Alemán, Tamps."
VDCGJ,20.5,-101,"Victoria de Cortázar, Gto."
THYCH,26.183333,-107.666667,"Toahayana, Chih."
SNACP,16.938889,-92.820833,"Santa María, Chis."
CDMDF,19.357222,-98.999444,"Cárcel de Mujeres, Cd. de Méx."
PORMC,20.3,-101.6,"Pastor Ortiz, Mich."
ZPPJL,20.716667,-103.366667,"Zapopan, Jal."
CRRBN,32.479444,-116.696944,"El Carrizo, B.C."
SDDVC,19.05,-96.420833,"Soledad de Doblado, Ver."
MLGBS,26.866667,-112,"Mulege, B.C.S."
CMTMC,20.111111,-102.661667,"Cumuatillo, Mor."
NTAZC,24.983056,-102.615,"Nuevo Tampico, Zac."
GARVC,18.270556,-95.556944,"Garro, Ver."
ALTVC,19.7625,-97.234722,"Altotonga, Ver."
K10SO,27.1,-109.6,"km 108 de Canal Alto, Son."
LPNMC,18.848611,-102.133333,"Los Panches, Mich."
GRETP,26.450556,-99.151667,"Guerrero (Presa Falcón), Tamps."
PERGJ,20.516667,-101.133333,"Pericos, Gto."
LANVC,19.5,-96.895833,"Las Ánimas, Ver."
LDCVC,18.415833,-95.118333,"Canseco, Ver."
TNCVC,19.811111,-96.916667,"Tenochtitlán, Ver."
AGOMC,19.579722,-100.608889,"Agostitlán, Mich."
ELPOX,18.166667,-96.216667,"El Porvenir, Oax."
JCRVC,17.433333,-95.033333,"Jesús Carranza, Ver."
LCAVC,18.109444,-94.330833,"La Cangrejera, Ver."
MMNSO,26.806667,-109.402222,"Mumuncuera, Son."
JOYVC,19.603611,-97.021111,"La Joya, Ver."
MABGJ,20.504444,-101.931944,"Mariano Abasolo, Gto."
MTOYC,21.094167,-89.291667,"Motul, Yuc."
CLCSI,24.816667,-107.4,"Culiacán, Sin."
JESCP,15.875,-93.475,"Jesús, Chis."
PIJCP,15.691667,-93.216667,"Pijijiapan, Chis."
GRICP,16.975,-93.125,"Grijalva, Chis."
SLSGJ,20.051667,-100.667222,"Solís, Gto."
CHACP,16.083333,-90.95,"Chajul, Chis."
MDTVC,20.0675,-97.048333,"Martínez de la Torre, Ver."
TAZCP,0,0,"Tazas, Chis."
PDMTP,23.726667,-98.745833,"Paso de Molina, Tamps."
GSVSI,25.716667,-108.466667,"Guasave, Sin."
LPZNL,27.05,-100.5,"Lampazos, N.L."
INCVC,19.604722,-96.884444,"Ingenio Concepción, Ver."
EOCGR,17.233333,-99.516667,"El Ocotito, Gro."
CTZPB,20.033333,-97.516667,"Cuetzalan, Pue."
PGRDR,23.963333,-104.54,"Praxidis Guerrero, Dgo."
ZAMMC,20.006667,-102.284167,"Zamora, Mich."
VENPB,20.510278,-97.675833,"Venustiano Carranza, Pue."
ESPJL,19.4,-103.5,"La Esperanza, Jal."
POPNL,24.900833,-99.4975,"El Popote 1, N.L."
MATCL,25.527778,-103.228056,"Matamoros, Coah."
RSLJL,20.758333,-103.9875,"Los Rosillos, Jal."
CYTQT,20.583333,-100.2,"Coyotillo, Qro."
CBLMC,20.319444,-101.459167,"Casa Blanca, Mich."
CRVNL,26.091389,-99.614167,"Cerralvo, N.L."
ZACPB,19.9,-97.9,"Zacatlán, Pue."
CHXSI,26.736111,-108.329167,"Choix Estación, Sin."
CMLVC,18.738889,-96.455556,"Camelpo, Ver."
MSLSL,22.1,-99.1,"Mesillas, S.L.P."
PCMSO,30.933333,-110.816667,PRESA COMAQUITO
URUMC,19.4,-102.2,"Uruapan, Mich."
CUQJL,20.948056,-103.039444,"Cuquío, Jal."
PCHHD,20.116667,-98.741667,"Pachuca, Hgo."
TAXGR,18.554444,-99.605278,"Taxco, Gro."
SLDGJ,21.04,-101.279722,"La Soledad, Gto."
CUAMR,18.8,-98.9,"Cuautla, Mor."
MZTDF,19.187778,-99.233056,"Calle Mezontepec (Abasolo), Cd. de Méx."
ESCCA,18.604444,-90.741111,"Escárcega, Camp."
STRZC,22.923611,-103.108889,"Santa Rosa, Zac."
RMEGR,16.823611,-99.166111,"Revolución Mexicana, Gro."
HSTNL,25.65,-100.461111,"Huasteca, N.L."
TPLDR,23.9,-105,"Tepalcates, Dgo."
ASLCM,19.12,-103.774167,"Los Amoles, Col."
PDNSO,29.433333,-109.083333,"Paso Nacori, Son."
DGNMC,20.304444,-102.436944,"De Gonzalo, Mich."
TMLJL,19.976111,-104.370278,"Ramón Corona Madrigal General, Jal."
CP6SO,27.425556,-110.248611,"Calle Cuatro y Prolongación Seis, Son."
CMPCA,19.838333,-90.544167,"Campeche, Camp."
CJTJL,0,0,"Cajitlán, Jal."
CHACH,28.656944,-106.085278,"Ciudad Chihuahua, Chih."
PTZMC,19.542778,-101.616944,"Pátzcuaro, Mich."
CMGTP,26.25,-98.8,"S-J-2-11 Camargo, Tamps."
SJOMC,19.9075,-100.316667,"San José, Mich."
SAHMC,20.066667,-102.716667,"Sahuayo, Mich."
CUIJL,20.341389,-102.7825,"Cuitzeo, Jal."
AJTSL,21.972222,-98.558333,"Las Adjuntas, S.L.P."
SJGDR,24.630556,-102.778056,"San Juan de Guadalupe, Dgo."
EPLGJ,21.173333,-101.688056,"El Palote, Gto."
VGRDR,18.391667,-100.266667,"Vicente Guerrero, Dgo."
ECHGJ,20.9,-101.2,"El Chapín, Gto."
GHQQT,20.566667,-100.366667,"Gerencia Hidalgo, Qro."
SELDR,24.608333,-103.079722,"Santa Elena, Dgo."
IALGJ,20.848056,-100.825833,"Ignacio Allende, Gto."
SGBDR,26.436667,-105.560833,"San Gabriel, Dgo."
CSRGJ,20.95,-100.9,"Cinco Señores, Gto."
PLSCL,29.1575,-100.987778,"Palestina, Coah."
SSIMC,20.1,-102.4,"San Simón, Mich."
AMLQT,20.184722,-100.145556,"Amealco, Qro."
MGDSO,30.668889,-110.930556,"Magdalena, Son."
CEMPB,18.968889,-97.958333,"Cemex, Pue."
MQTSL,22.266667,-101.116667,"Mexquitic, S.L.P."
VCRCL,27.515,-100.616111,"Venustiano Carranza, Coah."
ORAMC,19.964167,-102.325,"Orandino, Mich."
TSFDF,19.316667,-99.248611,"Tanque San Francisco, Cd. de Méx."
DHGGJ,21.15,-100.933333,"Dolores Hidalgo, Gto."
INSDR,24,-104.4,"Insurgentes, Dgo."
ACMCM,19.310833,-104.259167,"Ávila Camacho, Col."
CFRSI,26.3,-108.3,"Cofradía, Sin."
CLRDR,25.533333,-103.521667,"Ciudad Lerdo, Dgo."
DVLDF,19.383333,-99.15,"Del Valle, Cd. de Méx."
CMMMR,18.686944,-99.126389,"Centro Internacional de Mejoramiento de Maíz y Trigo, Mor."
GBESI,26.103611,-108.3275,"Ing. Guillermo Blake Aguilar, Sin."
VPLBN,32.24,-116.4,"Valle de Palmas, B.C."
CRRSI,26.1,-109.333333,"El Carrizo, Sin."
MORMC,19.688611,-101.176111,"Morelia, Mich."
MLIVC,18.133333,-95.533333,"Mata Limones, Ver."
VHGDR,26.2425,-104.928889,"Villa Hidalgo, Dgo."
VAZVC,18.075,-95.7,"Villa Azueta, Ver."
REDJL,20.718889,-102.815278,"La Red, Jal."
CLTJL,22.133333,-103.25,"Colotlán, Jal."
FAEYC,20.935278,-89.644167,"Fuerza Aérea, Yuc."
URPCH,27.216667,-107.916667,"Urique Pueblo, Chih."
STCNL,25.67,-100.461944,"Santa Catarina, N.L."
JDMOX,16.445556,-95.397778,"Presidente Benito Juárez, Oax."
C1CSO,27.3,-109.968333,"Calle Mil Doscientos y Canal Bajo, Son."
ROSDR,26.133333,-106.366667,"La Rosilla, Dgo."
SJADF,19.466667,-99.066667,"San Juan de Aragón, Cd. de Méx."
MLNAG,21.808889,-102.788333,"Media Luna, Ags."
MNZVC,18.134444,-94.9375,"Minzapan, Ver."
EMRDF,19.377778,-99.066667,"El Moral SACM, Cd. de Méx."
CEDCP,16.416667,-90.416667,"El cedro, Chis."
CAINR,21.201389,-104.080556,"El Caimán, Nay."
SMRSL,21.8,-100.733333,"Santa María del Río, S.L.P."
ALMBN,32.527778,-116.9,"El Alamar, B.C."
PRTBN,32.543889,-116.678333,"La Puerta, B.C."
PRCSI,25.083333,-107.783333,"Pericos, Sin."
SAMCH,27.579167,-105.366667,"San Ambrosio, Chih."
KM2OX,16.416667,-95.716667,"km 51+740, Oax."
ADRGR,18.1,-99.1,"Atenango del Río, Gro."
OAOOX,17,-96.7,"Observatorio de Aeropuerto Oaxaca, Oax."
ZPTCL,29.033889,-100.898889,"Zapata, Coah."
LCOJL,20.756389,-103.989444,"Laguna Colorada, Jal."
JNAGR,16.873611,-99.925278,"Juan N. Álvarez, Gro."
VRNSO,26.983611,-109.223056,"Veranito, Son."
CVAHD,0,0,"Canal Vicente Aguirre, Hgo."
JMNCH,27.126667,-104.912778,"Jiménez, Chih."
GNCDR,25.934722,-105.955556,"Guanacevit, Dgo."
CPRGR,16.879722,-99.914722,"Colonia Progreso (Calle Durango), Gro."
CSTGJ,21.2,-101.666667,"Los Castillos, Gto."
CSMGR,16.903889,-99.851944,"Colonia Simón Bolívar, Gro."
SCROX,16.183333,-95.2,"Salina Cruz, Oax."
HGRNL,25.961944,-100.014444,"Higueras, N.L."
CHPMX,19.483333,-98.884722,"Chapingo, Méx."
NEUGJ,20.7,-100.833333,"Neutla, Gto."
CHAMC,19.973611,-102.265278,"Chaparaco, Mich."
XCPCA,19.664444,-89.860278,"Xcupil, Camp."
CL1HD,0,0,CANAL DE LIGA 1 ROJO GOMEZ A VICENTE AGUIRRE
RMUMC,19.766389,-100.298056,"Tercer Mundo, Mich."
ESLJL,21.037222,-102.705,"El Salto, Jal."
CPRNL,24.9375,-99.399722,"José López Portillo, N.L."
SDOOX,18.033333,-96.55,"Santo Domingo, Oax."
COTVC,18.1,-94.4,"Coatzacoalcos, Ver."
GYMSO,27.95,-110.85,"Guaymas, Son."
SFLBN,31.033333,-114.85,"San Felipe, B.C."
LORZC,22.264722,-101.985556,"Loreto, Zac."
BRRGJ,21.05,-101.833333,"El Barrial, Gto."
ARCSO,27.226111,-109.106667,"Adolfo Ruíz Cortínes, Son."
BCMSO,27.55,-110.079444,"Bacum, Son."
LFLCP,16.695833,-93.561111,"Las Flores, Chis."
3RSSO,29.842778,-108.711944,"Tres Ríos, Son."
AGMNR,21.839167,-104.802222,"Aguamilpa Solidaridad, Nay."
TBRMX,19.333333,-99.8,"Tres Barrancas, Méx."
PANTL,19.3,-98.2,"Panotla, Tlax."
CUCNR,22.35,-105.183333,"Cucharas, Nay."
SLTDR,23.75,-105.666667,"El Salto, Dgo."
MLPMC,19.829167,-100.873611,"Malpaís, Mich."
CIZDR,24.375,-105.147222,"Colonia Ignacio Zaragoza, Dgo."
LPZBS,24.15,-110.366667,"La Paz, B.C.S."
LLAQT,20.461944,-99.994722,"La Llave, Qro."
PLZCA,18.253056,-92.086944,"Palizada, Camp."
CAPNR,21.831111,-105.1125,"Capomal, Nay."
CDOOX,17.999167,-96.263611,"Miguel de la Madrid Hurtado, Oax."
NVJSO,27.071944,-109.443333,"Navojoa, Son."
CJZCH,31.736667,-106.400278,"Ciudad Juárez, Chih."
SOLPB,19.960833,-97.446667,"La Soledad, Pue."
LPZMC,18.8,-101.2,"Los Pinzanes, Mich."
SBADF,19.328611,-99.275,"San Bartolo Ameyalco, Cd. de Méx."
TBLSL,21.246667,-98.857222,"Tierra Blanca, S.L.P."
PMDMX,19.526944,-99.260833,"Madín, Méx."
RSPTP,23.259444,-97.991944,"República Española, Tamps."
MAGTP,24.566667,-99.551111,"Magueyes, Tamps."
TBLVC,18.45,-96.35,"Tierra Blanca, Ver."
FTEJL,20.298056,-102.766667,"El Fuerte, Jal."
LTRDR,24.466667,-106,"Las Truchas, Dgo."
OCZCP,16.766667,-93.45,"Ocozocoautla, Chis."
SLMGJ,20.565278,-101.199444,"Salamanca, Gto."
LRMNL,25.695278,-99.623056,"Los Ramones, N.L."
GUAMC,19.979167,-102.541389,"Guaracha, Mich."
CJNSO,29.472222,-110.736389,"El Cajón, Son."
PMNMX,20.124167,-99.739722,"El Molino, Méx."
ARMCM,18.941389,-103.966667,"Armería, Col."
ZZMMC,19.49,-101,"Zinzimeo, Mich."
SMGCL,29.034167,-100.953889,"San Miguel, Coah."
SJTYC,20.8,-89.5,"José Tecoh, Yuc."
PDLGJ,21.1,-100.9,"Puente Dolores, Gto."
HJTHD,21.15,-98.416667,"Huejutla, Hgo."
ESCCP,15.316667,-92.666667,"Escuintla, Chis."
JDMTB,18.174444,-93.063889,"Jalpa de Méndez, Tab."
CAMMC,19.916667,-102.2125,"Camécuaro, Mich."
SMLMX,19.633333,-99.8,"Santa María del Llano, Méx."
CJNBS,24.159722,-110.161111,"El Cajoncito, B.C.S."
C2CSO,27.483889,-110.013056,"Calle Doscientos y Canal Bajo, Son."
PABNL,24.856944,-99.555556,"Pablillo, N.L."
TXMHD,19.835278,-99.385,"Taxhimay, Hgo."
CNTQT,20.513333,-99.897778,"El Centenario, Qro."
PNTDF,19.246389,-99.090833,"Planta Nativitas, Cd. de Méx."
RINMC,20.333333,-102.283333,"Rinconada, Mich."
PZDMC,18.395,-101.898333,"Pinzandarán, Mich."
CNDCH,27.416667,-108.541667,"Chinipas, Chih."
CIRMC,0,0,"Circunvalación (Yerbabuena), Mich."
ESTJL,21.185556,-102.900556,"El Estribón, Jal."
CHIGR,17.545278,-99.5,"Chilpancingo, Gro."
LREPB,20.174722,-98.131944,"Los Reyes, Pue."
TRJCM,18.967222,-103.396667,"Solidaridad, Col."
VJZSO,27.125556,-109.841944,"Villa Juárez, Son."
CCOQT,20.635833,-102.466389,"Cerrito Colorado, Qro."
MTPSL,21.333333,-98.8,"Matlapa, S.L.P."
CP1SO,27.300556,-110.180278,"Calle Cuatro y Prolongación Doce, Son."
ZHTGR,17.863333,-101.545,"Zihuatanejo, Gro."
NVLTP,27.495556,-99.490278,"Nuevo Laredo, Tamps."
ETAMC,19.53,-100.28,"E. T. A., Mich."
TPCSO,29.534722,-109.5,"Tepache, Son."
TGOZC,21.468611,-103.461944,"Teúl de González Ortega, Zac."
CORMC,20.207222,-101.861667,"Corrales, Mich."
REOTP,25.830556,-98.187222,"S-J-3-58 Reynosa, Tamps."
ALMCP,17.183333,-92.6625,"Almandro, Chis."
PCTDF,19.41,-99.2,"Planta Chapultepec, Cd. de Méx."
CHTQR,18.518889,-88.300833,"Chetumal Tecnológico, Q. Roo."
CRMGJ,20.616667,-101.666667,"Cuerámaro, Gto."
LUNSL,22.1,-98.9,"La Unión, S.L.P."
FRUTB,17.968611,-93.928611,"Francisco Rueda, Tab."
HTSVC,19.181667,-96.950833,"Huatusco, Ver."
PMOCP,16.719444,-92.65,"Puente Morelos (San Cristobal), Chis."
JGRSI,24.753611,-107.059444,"Juan Guerrero Alcocer, Sin."
SAMTB,17.979167,-93.291667,"Samaria, Tab."
IDFQT,20.198611,-99.9625,"San Ildefonso, Qro."
PCACP,17.2625,-92.15,"Paso del Cayuco, Chis."
CTPMX,19.386389,-98.847778,"Coatepec de los Olivos, Méx."
ECNGJ,20.733333,-101.366667,"El Conejo, Gto."
ELTCP,16.6,-90.65,"El Tigre, Chis."
CDTVC,20.75,-97.649444,"Castillo de Teayo, Ver."
CMPSO,30.235833,-109.816667,"Cumpas, Son."
LCANL,24.694167,-99.6675,"La Carrera, N.L."
RECMX,19.296667,-99.653333,"Rectoría, Méx."
RAMJL,20.55,-104.05,"Río Ameca, Jal."
AERBN,0,0,"Aeropuerto (Ejército), B.C."
VCLCP,15.216667,-92.566667,"Villa Comaltitlán, Chis."
CNGPB,19.743333,-98.049722,"Chignahuapan, Pue."
PNTCM,19.266667,-103.816667,"Peñitas, Col."
ESPMC,20,-102.4,"Esperanza, Mich."
CCHNL,25.711667,-99.276944,"Cuchillo-Solidaridad, N.L."
COBCA,19.838611,-90.507222,"Observatorio de Campeche, Camp."
CORJL,20.404167,-103.083333,"Corona, Jal."
TMAMR,19.054167,-99.241667,"Tres Marías, Mor."
SJEVC,17.883333,-95.133333,"San Juan Evangelista, Ver."
NILOX,16.6,-94.6,"Niltepec, Oax."
ZRGPB,20.178611,-97.832778,"Zaragoza, Pue."
DBOMC,19.387778,-100.421111,"El Bosque, Mich."
AROCP,16.241111,-93.8975,"Arriaga, Chis."
SAAZC,23.58,-103.263889,"Saín Alto, Zac."
CARCA,18.654167,-91.761389,"El Carmen, Camp."
TPNDF,19.440833,-99.084722,"Tanque Peñón, Cd. de Méx."
JOJMR,18.6,-99.2,"Jojutla, Mor."
SBBDR,23.8,-104.9,"Santa Bárbara, Dgo."
SCOCP,16.733333,-92.633333,"Observatorio de San Cristóbal, Chis."
MHGSI,26.5,-108.583333,"Miguel Hidalgo, Sin."
OBSNL,25.733611,-100.304722,"Observatorio de Nuevo León, N.L."
CSSGJ,21.191667,-101.666667,"Los Castillos (Canales), Gto."
TTLDF,19.210278,-98.970833,"Tetelco, Cd. de Méx."
CEBDR,26.521667,-104.123333,"Ceballos, Dgo."
TECDF,19.373056,-99.272222,"Tanque el Cartero, Cd. de Méx."
TOTMR,18.9875,-98.92,"Totoloapan, Mor."
LDACM,18.809167,-103.774167,"Laguna de Amela, Col."
LIVCP,16.579167,-91.683333,"Livingstone, Chis."
TZPJL,20.166667,-103.033333,"Tizapán, Jal."
ZALVC,19.433333,-97.416667,"Zalayeta, Ver."
CARNR,21.85,-104.8,"Carrizal, Nay."
MRVMC,19.890833,-100.439167,"Maravatío, Mich."
JAPCP,15.866667,-92.725,"Jaltenango, Chis."
SQRSI,23.35,-106.25,"Siqueros, Sin."
PTRAG,22.235,-102.4375,"Derivadora Pabellón, Ags."
COBSO,27.5,-109.938056,"Ciudad Obregón, Son."
ENSDR,0,0,"Ensueños, Dgo."
CPAMX,19.484722,-98.886389,"Chapingo, Méx."
PNCVC,22.053333,-98.172778,"Pánuco, Ver."
RYSTP,25.651667,-98.577222,"S-J-3-63 Reynosa, Tamps."
TXOCP,16.75,-93.133333,"Observatorio de Tuxtla Gutiérrez, Chis."
SGBTP,23.083611,-98.787222,"San Gabriel, Tamps."
JRZCL,27.6,-100.716667,"Juárez, Coah."
CBRSO,30,-111.1,"Caborca, Son."
CSCVC,19.072222,-97.033333,"Coscomatepec, Ver."
COAJL,20.8,-104.083333,"Coatepec, Jal."
LAECP,16.490278,-93.216667,"La Escalera, Chis."
PIEDR,24.7,-105.8,"Pielagos, Dgo."
TENPB,20.199444,-97.983333,"Tenango, Pue."
DTLDF,19.313333,-99.309167,"Desierto de los Leones, Cd. de Méx."
OXTVC,19.432222,-97.091667,"Oxtlapa, Ver."
PEMVC,21.184444,-97.814444,"Presa el Moralillo, Ver."
RENZC,22.555833,-103.519444,"Rancho de Enmedio, Zac."
LSBGR,16.9,-99.8,"La Sabana, Gro."
BOCNL,25.425833,-100.145833,"La Boca, N.L."
ACLMX,19.788889,-99.893056,"Puente Atlacomulco, Méx."
ZCPPB,19.859722,-97.585,"Zacapoaxtla, Pue."
XCEVC,19.528889,-96.924722,"Xalapa Centro, Ver."
HPNMX,20.046389,-99.696944,"Huapango, Méx."
LCLGR,18.418611,-101.003056,"La Calera, Gro."
DJLCM,19.111389,-103.884444,"Derivadora Jala (Madrid), Col."
CCNBS,25.001389,-111.658333,"Ciudad Constitución, B.C.S."
SCMDF,19.338333,-99.028889,"Santa Cruz Meyehualco, Cd. de Méx."
LJSCH,29.88,-107.025833,"Las Lajas, Chih."
CRRVC,19.320278,-96.647222,"Carrizal, Ver."
TNJAG,21.807778,-102.127778,"La Tinaja 2, Ags."
PSNVC,21.293611,-98.335278,"Platón Sánchez, Ver."
PMLQT,21.055833,-99.815,"Peñamiller, Qro."
RSOTP,25.872222,-98.2,"S-J-3-55 Reynosa, Tamps."
RSRSI,22.983333,-105.85,"Rosario, Sin."
PDBMC,19.49,-101.05,"Planta de Bombeo, Mich."
PECSO,28.976667,-109.642222,"Plutarco Elías Calles, Son."
PNDMX,20.038611,-99.864444,"Ñadó, Méx."
ORTCM,19.111389,-103.731111,"Los Ortices, Col."
CRCSO,27.244167,-109.636944,"Cárcamo, Son."
LCIGR,16.932222,-99.845556,"Lázaro Cárdenas (Col. Industrial), Gro."
LPSMC,18.8,-102.2,"La Pastoría, Mich."
CHOQR,18.500556,-88.3275,"Chetumal, Q. Roo."
EXCZC,21.645833,-103.35,"Miguel Alemán, Zac."
K15CH,28.2,-106.5,"km 140+000, Chih."
CRDSL,21.997222,-99.643333,"Cárdenas, S.L.P."
CUZYC,20.7375,-89.314444,"Cuzama, Yuc."
CMNGJ,20.716667,-100.75,"Comonfort, Gto."
PABBS,26.716667,-113.583333,"Punta Abreojos, B.C.S."
ATOMX,19.452778,-99.776389,"Atotonilco 2, Méx."
OCRSI,25.933333,-108.45,"Ocoroni, Sin."
CLLCM,18.813056,-103.6325,"Callejones, Col."
CUNJL,21.133333,-102.85,"La Cuña, Jal."
CRDVC,19.364722,-96.374444,"Cardel, Ver."
LRNMX,19.513333,-99.213333,"Las Ruinas, Méx."
SL2GJ,20.05,-100.666667,"Solis, Gto."
HMNSO,29.073056,-110.925833,"Hermosillo, Son."
SUCCP,14.683333,-92.133333,"Suchiate, Chis."
OBSDR,24.1,-104.6,"Observatorio de Durango, Dgo."
OACMR,18.734722,-99.258333,"Oacalco, Mor."
JRQQT,20.7,-100.45,"Juriquilla, Qro."
JORSI,26.426944,-108.7025,"Josefa Ortiz de Domínguez, Sin."
PIRMX,19.461667,-99.775,"Ignacio Ramírez, Méx."
PNVTB,17.854167,-92.879167,"Pueblo Nuevo, Tab."
CDFNL,25.952222,-100.172222,"Ciénega de Flores, N.L."
ACTSI,24.047222,-106.654167,"Acatitán, Sin."
MZTSI,23.233333,-106.4,"Mazatlán, Sin."
ACEQUIAMADRE,31.76,-106.51,"Acequiamadre, Chih. SGT*"
ANZALDUAS,26.131389,-98.336389,"Anzalduas, Tamps. SGT*"
ARROYOBLANCO,28.89,-100.62,"Arroyo Blanco, Coah. SGT*"
CILANORTE,31.756944,-106.445278,"CILA Norte, Chih. SGT*"
COLOMBIA,27.699167,-99.746944,"Colombia, N.L. SGT*"
DIAZORDAZ,26.238889,-98.565556,"Díaz Ordaz, Tamps. SGT*"
ELAMOLE,28.12,-100.12,El Amole
ELAZUCAR,26.250278,-98.850556,"El Azúcar, Tamps.*"
ELCHAPENO,26.526944,-99.138611,"El Chapeño, Tamps. SGT*"
ELCOYOTE,27.435556,-99.526389,"El Coyote, Tamps. SGT*"
ELMORAL,28.9,-100.62,"El Moral, Coah. SGT*"
ELMORILLO,26.1525,-98.384167,"El Morillo, Tamps. SGT*"
ELMULATO,29.48,-104.22,"El Mulato, Chih. SGT*"
ELNOGAL,29.42,-104.26,El Nogal
ELPORVENIR,17.451111,-95.314167,El Porvenir INIFAP
ELPUENTE,26.790833,-99.421944,"El Puente, Tamps. SGT*"
ELUMBRAL,26.04,-98.04,"El Umbral, Tamps. SGT*"
JABONCILLOS,29.41,-101.04,Jaboncillos
JIMENEZ,29.05,-100.663889,"Jiménez, Coah. SGT*"
LAFRAGUA,28.823056,-100.833333,"La Fragua, Coah. SGT*"
LAPURISIMA,22.089444,-101.207778,"La Purísima, S.L.P. INIFAP*"
LASBANDEJAS,31.32,-105.97,Las Bandejas
LASTORTILLAS,26.816944,-99.548333,Las Tortillas
LASVACAS,29.329167,-100.952778,Las Vacas
LAZADEROS,27.83,-99.91,Lazaderos
LOSSALADOS,27.063333,-99.503056,Los Salados
LUISLEON,31.087222,-105.608889,Luis León
MATAMOROS,18.591944,-90.641667,"Matamoros, Camp. INIFAP*"
NLRIOBRAVO,27.498333,-99.506944,"Nuevo León Río Bravo, N.L. SGT*"
NUEVOLAREDO,27.44,-99.53,"Nuevo Laredo, Tamps. SGT*"
NUEVOPROGRESO,26.061111,-97.950278,"Nuevo Progreso, Tamps. SGT*"
OJINAGA,29.58,-104.430278,"Ojinaga, Chih."
PIEDRASNEGRAS,28.71,-100.51,"Piedras Negras, Coah. SGT*"
PLAAMISTAD,29.45,-101.06,"Presa La Amistad, Coah. SGT*"
PRESAFALCON,26.561667,-99.167778,"Presa Falcón, Tamps. SGT*"
PUERTECITO,26.284444,-98.745556,"Dren Puertecito, Tamps. SGT*"
RANCHERIA,26.35,-98.908056,"Dren Rancherías, Tamps. *"
RIOESCONDIDO,28.667778,-100.556944,Río Escondido
RLAAMISTAD,29.42,-101.04,"Represa la Amistad, Coah. SGT*"
HUITZUCO,18.298889,-99.336389,"Huitzuco, Gro. Protección Civil*"
SANDIEGO,19.421389,-99.810556,San Diego INIFAP
VILLAHIDALGOINI,21.668333,-102.571944,"Villa Hidalgo, Jal. INIFAP*"
TLLZC,21.773611,-103.309444,"Tlaltenango, Zac."
VGRZC,22.315833,-103.44,"Vicente Guerrero, Zac."
VILZC,21.588889000000002,-103.3375,"José María Morelos, Zac."
ZACZC,22.761389,-102.576667,"Zacatecas, Zac."
PIMDF,19.344444,-99.188056,"Pimentel, DF. SMN*"
B37013,0,0,LA PRESA
B37012,20.056389,-99.345556,TULA
B37011,0,0,SALIDA TUNEL
B37008,0,0,EL TULE
B37007,0,0,LOS PILARES
B37006,0,0,EL GRITO
B37005,0,0,LOS PILARES
B36090,24.625,-103.305556,LOS NARANJOS
B36089,0,0,LOS NARANJOS
B36084,0,0,LA CRUZ
B36083,0,0,LA CRUZ
B36082,0,0,KM. 1 +861 (PRESA LEOBARDO REYNOSO)
B36080,24.320833,-102.8825,SAN FRANCISCO
B36079,0,0,SARDINAS
B36078,0,0,KM. 0 +520
B36076,25.264167,-104.068056,AGUSTIN MELGAR
B36075,0,0,PUENTE PROVISIONAL MORELOS
B36074,25.220556,-105.448889,J. SALOME ACOSTA
B36072,0,0,SAN ANTONIO II
B36071,26.084167,-105.565833,SARDINAS
B36070,0,0,RELAMPAGO MEDIDOR PARSHALL
B36067,25.265278,-103.773611,CAÑON FERNANDEZ II
B36061,0,0,CAZADERO IZQUIERDO (PRESA EL CAZADERO)
B36060,0,0,LOS ANGELES
B36049,0,0,EL SAUZ II
B36048,22.926111,-103.113056,SANTA ROSA
B36047,0,0,SANTA ROSA
B36044,25.614444,-105.003611,EL PALMITO II
B36042,0,0,COLONIA
B36041,26.341389,-99.94,SOMBRERETILLO
B36040,25.091667,-103.325,LA FLOR
B36039,25.068056,-103.283889,LA FLOR
B36038,0,0,PRESA DERIVADORA SANTA ROSA
B36034,0,0,CUIJE
B36033,0,0,CAÑON FERNANDEZ
B36032,0,0,TLAHUALILO
B36031,0,0,SANTA ROSA
B36015,0,0,EL PALMITO
B36012,24.630556,-102.778056,SAN JUAN DE GUADALUPE
B36003,25.542222,-103.469167,COYOTE
B35005,0,0,AGUA PUERCA
B35004,0,0,AGUA PUERCA II
B35003,26.236667,-104.483333,AGUA PUERCA
B35002,0,0,VILLA HIDALGO
B35001,0,0,VILLA HIDALGO
B34008,29.736111,-107.073889,LA TRASQUILA
B34005,0,0,KM. 2+420
B34004,30.370833,-107.957222,CASAS GRANDES
B34003,0,0,EL TINTERO II
B30210,16.552778,-92.804167,ACALA
B30209,0,0,VERTEDOR COPAINALA
B30208,0,0,SAN PEDRO II
B30207,0,0,SAN MIGUEL
B30206,0,0,REFORMA
B30205,0,0,PATARA
B30204,0,0,LACANTUM
B30203,0,0,ITZANTUN
B30202,0,0,CHACTE
B30201,0,0,COPAINALA
B30200,0,0,MAMANTEL
B30199,18.286111,-90.692778,PALIZADA
B30198,0,0,PORVENIR
B30197,0,0,LA ESPERANZA
B30196,15.873611,-92.729167,EL LIMON
B30195,15.875,-92.730556000000007,JALTENANGO
B30192,0,0,SAN FRANCISCO III
B30191,0,0,LA REFORMA
B30190,0,0,LA GARZA
B30189,0,0,PUENTE RIO PANDO
B30188,16.744444,-92.641667,PUENTE INI
B30187,16.308333,-92.479167,CASCAJAL
B30186,15.916667,-92.666667,REFORMA
B30185,16.158333,-93.747222,EL BRILLANTE
B30184,15.75,-92.283333,CHICOMUSELO
B30183,0,0,GUERRERO
B30182,0,0,YAMONHO III
B30181,18.182778,-91.050278,CANDELARIA
B30180,0,0,MIRAMAR
B30179,0,0,ZOQUIPAC
B30177,16.1,-91.2,EL COLORADO
B30174,0,0,EL CARMEN
B30168,0,0,LOS AMATES
ARSHD,19.937778,-99.283333,"Al Río el Salto, Hgo."
B30166,0,0,EL ZAPOTAL
B30161,16.777778,-92.122222,EL CARMEN
B30160,0,0,SAN AGUSTIN
B30159,18.043611,-92.814722,EL PORVENIR
B30158,15.848611,-91.968056,PUENTE CONCORDIA
B30157,17.2625,-92.15,PASO DEL CAYUCO
B30156,0,0,BOMBANA
B30155,0,0,RIO BLANCO
B30154,0,0,SAN PEDRO
B30152,0,0,LAS PERLAS
B30151,16.4125,-91.358333,SAN QUINTIN
B30150,16.2,-91.3,LA CATARATA
B30149,16.266667,-91.374167,EUSEBA
B30148,0,0,EL CALIENTE
B30144,0,0,EL PAYACAL
B30143,16.135556,-91.485556,SANTA ELENA
B30142,0,0,LA PIMIENTA
B30141,16.579167,-91.683333,LIVINGSTONE
B30140,0,0,LAS TAZAS
B30139,0,0,EL ROSARIO
B30138,0,0,YALCHIPIC
B30137,16.733333,-92.038889,ALTAMIRANO
B30135,17.183333,-92.6625,ALMANDRO
B30134,0,0,TZIMOL
B30133,0,0,COMALAPA
B30132,0,0,BOMBANA
B30131,0,0,LAS LAJAS
B30130,16.833333,-92.945833,PLAN DE AYALA
B30129,16.933333,-93.1,CHICOASEN
B30128,16.445833,-92.758333,LA ANGOSTURA
B30127,0,0,EL ZAPOTE
B30126,0,0,EL SALADO
B30125,0,0,SCHPOINA
B30123,0,0,AGUA VERDE II
B30121,0,0,YAMONHO II
B30120,16.083333,-90.95,CHAJUL
B30119,17.116667,-93.330556,YAMONHO
B30107,16.416667,-90.416667,EL CEDRO
B30104,0,0,YOLA
B30102,15.783333,-91.911111,AQUESPALA
B30098,16.972222,-93.125,GRIJALVA
B30097,16.591667,-90.683333,AGUA VERDE
B30096,0,0,PAREDON
B30095,0,0,EL TIGRE
B30094,17.577778,-93.3875,PLATANAR
B30093,17.466667,-92.816667,TAPIJULAPA
B30091,15.858333,-92.941667,SAN FRANCISCO II
B30089,16.733333,-93.033333,PUENTE COLGANTE II
B30088,17.791667,-91.158333,SAN PEDRO TABASCO
B30083,17.966667,-92.916667,LAS GAVIOTAS II
B30082,0,0,LOS BADOS
B30081,0,0,LA REFORMA
B30080,0,0,PUENTE SAN NICOLAS
B30077,0,0,PUENTE SANTUARIO
B30076,17.216667,-93.5825,MALPASO II
B30072,16.695833,-93.561111,LAS FLORES II
B30071,16.938889,-92.820833,SANTA MARIA
B30070,17.425,-93.383333,SAYULA
B30069,0,0,SAN DIEGO
B30068,0,0,PEJE DE ORO
B30067,0,0,SAN PEDRO CHIAPAS II
B30066,0,0,TZIMBAC
B30065,0,0,LAS MERCEDES
B30064,0,0,MAL PASO I
B30062,17.975,-93,GONZALEZ
B30061,16.666667,-93.8,LA UNION
B30060,0,0,LA MESA
B30059,0,0,PUENTE SAAVEDRA
B30058,16.741667,-92.6375,PUENTE MORELOS
B30057,17.558333,-93.108333,PICHUCALCO
B30056,0,0,LA CONCORDIA
B30055,17.766667,-92.6,MACUSPANA
B30053,0,0,SANTA ISABEL
B30052,0,0,CONCEPCION
B30051,15.916667,-92.666667,REFORMA
B30050,0,0,LOS BERROS
B30049,0,0,EL TORO
B30048,0,0,EL SALVADOR
B30042,17.566667,-92.35,SALTO DE AGUA
B30041,16.490278,-93.216667,LA ESCALERA
B30040,0,0,ARGELIA
B30039,16.183333,-92.291667,LA MESILLA
B30038,0,0,PUENTE PARQUE MADERO
B30037,0,0,SAN PEDRO I
B30036,16.791667,-92.827778,EL BURRERO
B30033,0,0,SAN FRANCISCO
B30032,17.566667,-92.966667,TEAPA
B30031,17.566667,-92.9375,PUYACATENGO
B30030,0,0,ARCO DE PIEDRA
B30024,0,0,SAN AGUSTIN
B30022,0,0,CANAL CHACONA
B30021,0,0,VERTEDOR CHACONA
B30020,16.641944,-93.15,EL BOQUERON II
B30016,17.854167,-92.879167,PUEBLO NUEVO
B30015,17.408333,-92.45,LAS PEÑITAS
B30014,16.738889,-93.036111,PUENTE COLGANTE
B30012,0,0,EL MARIN
B30006,17.990278,-92.916667,EL MUELLE
B30005,17.979167,-93.291667,SAMARIA
B30004,15.354167,-92.547222,EL DORADO
B30003,0,0,LA PIGUA
B29017,0,0,RIO GRANDE
B29016,17.25,-94.6125,CEDILLO
B29015,0,0,TUZANTAN
B29014,0,0,TUTLA
B29013,0,0,PUENTE TEAPA
B29012,0,0,LA ISTMEÑA
B29011,0,0,MALATENCO
B29010,19.883333,-95.133333,SAN JOSE DEL CARMEN
B29009,18.134444,-94.9375,MINZAPAN
B29008,17.583333,-94.166667,TIERRA MORADA
B29007,0,0,PASO ARNULFO
B29006,17.433333,-95.033333,JESUS CARRANZA II
B29005,17.416667,-94.916667,LAS PERLAS
B29003,0,0,HUAZUNTLAN
B28195,0,0,BARRANCA GRANDE
B28194,0,0,ZAPOAPITA
B28193,0,0,TLAMOLOAXTLA
B28192,0,0,COZOLAPA
B28191,0,0,TEPETAPAN
B28190,0,0,PRESA DERIVADORA CHILAPAN
B28189,0,0,NOALINCO
B28188,0,0,EL ZETAL
B28186,0,0,ACATEPEC
B28185,0,0,TENEJAPA
B28184,0,0,TEBATON
B28183,0,0,COLONIA RÍO BLANCO
B28182,0,0,SANTIAGO APOALA
B28180,0,0,TEMAZCAL
B28179,0,0,EL DOCTOR
B28178,0,0,QUIOTEPEC
B28177,0,0,TESECHOACAN
B28176,0,0,EL TROPICO
B28175,0,0,MAZATLAN
B28174,0,0,TRES ZAPOTES
B28173,0,0,SAN NICOLAS
B28172,0,0,KM. 12+000
B28171,0,0,ARROYO HONDO
B28170,0,0,ZAPOAPAN (COLONIAS RIO BLANCO)
B28169,0,0,OJO DE AGUA
B28168,0,0,COMOAPAN
B28167,0,0,TELPATLAN
B28166,0,0,YALALAG
B28165,0,0,SOYOLAPA
B28164,0,0,SAN MIGUEL
B28163,0,0,INGUIRJO
B28162,0,0,HAMACA
B28161,0,0,GUELATAO
B28159,0,0,GUADALUPE DE CISNEROS
B28158,17.45,-95.483333,MARIA LOMBARDO
B28157,0,0,RÍO GRANDE
B28156,18.45,-95.183333,SIHUAPAN
B28155,18.458333,-94.338889,PUENTE GRANDE
B28154,17.556944,-95.5875,LA LANA
B28153,18.229722,-95.445278,LA CEIBILLA
B28152,0,0,PASO CABRITO
B28149,0,0,ESTANZUELA
B28148,0,0,ARROYO DE ENMEDIO
B28147,0,0,CHICHICAZAPA
B28145,17.25,-94.6125,CEDILLO
B28143,17.8,-95.855556000000007,SAN JOSE CHILAPA
B28142,0,0,OTAPA
B28141,0,0,MORENO
B28139,0,0,LA BOCA
B28138,0,0,LAS POZAS
B28137,0,0,JOACHIN
B28136,18.270556,-95.556944,GARRO
B28135,18.340278,-95.836111,CHACALTIANGUIS
JLMVC,19.2625,-96.393333,"Jalcomulco, Ver."
B28133,0,0,AMATITLA II
B28131,0,0,PARIAN
B28130,19.495,-96.5875,ACTOPAN
B28129,0,0,XIA
B28127,0,0,SANTA ANITA
B28126,0,0,TEOPOXCO
B28125,19.320278,-96.647222,CARRIZAL
B28124,0,0,SUCHISTLAHUACA
B28123,0,0,CULEBRA
B28122,18.745833,-96.441667,CAMELPO
B28121,0,0,CAMELPO
B28120,0,0,CAMELPO
B28119,18.915,-96.821667,SANTA ANITA
B28118,0,0,LOS LEANDROS
B28117,0,0,EL AMATE
B28116,0,0,DOLORES
B28115,0,0,TILAPA
B28114,0,0,COMULCO
B28113,0,0,AYOTLA
B28112,18.738889,-96.455556,AYOTLA
B28111,19.408333,-96.516389,IDOLOS
B28109,0,0,KM. 0+050
B28108,19.405833,-96.36,EL NARANJILLO
B28106,0,0,URSULO GALVAN
B28105,19.479167,-96.541667,KM. 0 +200
B28104,0,0,TOMELLIN
B28103,0,0,AMAPA
B28102,0,0,AXUSCO
B28100,0,0,PLAYA ESCONDIDA
B28099,0,0,PUXMECATAN
B28098,0,0,KM 22+240
B28092,0,0,KM. 2 +150
B28086,0,0,KM. 0 +300
B28084,0,0,MATAMBA
B28083,0,0,APOALA
B28082,0,0,APOALA
B28081,18.597222,-95.447222,ANGEL R. CABADAS
B28080,0,0,KM. 4+692
B28079,0,0,DOMINGUILLO
B28078,0,0,SALINAS DE LA BARRANCA
B28077,0,0,TEPELMEME
B28075,0,0,ZAPOTE
B28074,0,0,LA ANGOSTURA
B28072,0,0,XIQUILA
B28070,0,0,CALAPILLA
B28069,18.856667,-96.291111,CAPULINES
B28068,0,0,NARANJAL
B28066,0,0,LA JUNTA
B28065,0,0,PETLAPA
B28064,18.05,-95.55,SANTO DOMINGO
B28062,0,0,LA ESTRELLA
B28057,0,0,KM. 2 +200
B28056,17.866667,-96.2,JACATEPEC
B28055,0,0,ATZIHUATL
B28043,0,0,KM 18+200
B28040,19.067222,-96.158333,EL TEJAR
B28039,19.041667,-96.140833,PASO DEL TORO
B28035,0,0,KM 26+570
B28034,0,0,KM 10+240
B28031,0,0,RINCON DE LAS DONCELLAS
B28030,19.411667,-96.5875,ACTOPAN II
B28029,0,0,SACRIFICIOS
B28028,0,0,TEMAZCAL
B28027,0,0,PASO DE VIGAS
B28026,0,0,LAS PRIETAS
B28025,18.25,-95.35,LAUCHAPAN
B28024,0,0,OBISPO
B28023,0,0,CUICHAPA
B28022,0,0,MADEREROS
B28021,0,0,EL CARACOL
B28020,0,0,ACHOTAL
B28019,0,0,QUIOTEPEC
B28018,0,0,BELLACO
B28017,0,0,MONTE ROSA
B28016,0,0,CANTON
B28015,18.144444,-95.295833,CUATOTOLAPAN
B28014,18.166667,-96.083333,PAPALOAPAN
B28013,18.075,-95.7,AZUETA
B28012,0,0,NÚMERO 23 CATEMACO
B28003,19.364722,-96.374444,CARDEL
B28002,18.083333,-96.133333,TUXTEPEC
B28001,17.883333,-95.133333,SAN JUAN EVANGELISTA
B28000,0,0,CERRO FRIO
B27092,0,0,MACUILACACO
B27091,0,0,GACHUPINATE
B27090,0,0,TAXHIPEHUATL
B27089,0,0,SANTA ROSA
B27088,0,0,SAN CARLOS
B27087,21.230278,-99.479722,JALPANATL
B27086,0,0,LA PIEDAD
B27085,0,0,ATEPATAHUA
B27084,0,0,CUEXCO
B27083,0,0,PATLA
B27082,0,0,TETELILLA
B27081,0,0,TECRUZ
B27080,0,0,AMILA
B27079,0,0,ATEMEYA
B27078,0,0,LA FUNDICION
B27077,0,0,SAN JUAN ACATENO
BSTTP,23.435833,-99.754167,"Bustamante, Tamps."
B27075,19.435278,-99.227778,SAN JOAQUIN
B27074,0,0,EL SAUCE
B27073,0,0,TENEXPANOYA
B27072,0,0,ZACAPOAXTLA
B27071,0,0,EL SUSPIRO
B27070,0,0,PUERCO
B27069,0,0,LAS MINAS XUICAYUCAN
B27068,0,0,LAS MINAS
B27067,0,0,LA TRINIDAD
B27065,0,0,LA AURORA
B27064,0,0,MALOAPA
B27063,0,0,CUAUHTAMINGO
B27062,0,0,SAN CARLOS HUEYTAMALCO
B27061,0,0,PASO DE AYAHUALO
B27060,19.445278,-96.779167,RANCHO VIEJO
B27059,0,0,LIMONOATENO
B27058,0,0,XOLOAT
B27057,0,0,MAZOLAPA
B27056,0,0,PAHUAPAN
B27055,0,0,SONTALACO
B27054,0,0,TOMA NO. 26
B27053,0,0,CANAL TUNEL I
B27052,0,0,BUENOS AIRES
COYVC,20.258889,-97.655,"Coyutla, Ver."
B27050,0,0,SANTA ANA
B27049,0,0,TECUANTEPEC
B27048,0,0,REMOLINO
B27047,0,0,TENAMPULCO
B27046,0,0,CHALAME
B27045,0,0,OMIQUILLA
B27044,0,0,NARANGONGO
B27043,0,0,XALAT
B27042,0,0,REMOLINO
B27041,0,0,CUARTEL TERCERO
B27040,0,0,CHONCHAMOC II
B27039,0,0,COMALACO
B27038,0,0,MALPICO
B27037,0,0,TEPECAPAN
B27036,19.7625,-97.234722,ALTOTONGA
B27035,0,0,NARANJILLO
B27034,0,0,NIXTAMALAPA
B27033,0,0,COLAXTITLA
B27032,0,0,XOLOCO
B27031,19.816667,-97.3,JALACINGO
B27030,0,0,PUENTE XIUCAYUCAN
B27029,0,0,PUXTLA
B27028,0,0,ATEXCACO DOS RIOS
B27027,0,0,XILITA
B27026,0,0,APULCO-LA GLORIA
B27025,0,0,ROMERILLOS
B27024,0,0,TRINIDAD Y MINAS
B27023,0,0,BORREGOS
B27022,19.522778,-96.895833,LAS ANIMAS
B27021,0,0,RANCHO APULCO
B27020,0,0,PUENTE HENRIQUEZ
B27019,0,0,XALTEPUXTLA
B27018,0,0,EL CARMEN
B27017,20.083333,-98.116667,EL CARMEN
B27016,0,0,LA CUNA
B27015,0,0,TEHUILZPALCO
B27014,0,0,ZEMPOALA
B27013,0,0,TLAXCO
B27012,0,0,TEPEIXCO
B27011,19.755556,-98.757222,SAN NICOLAS
B27009,20.883333,-97.8,SOMBRERETE
B27008,0,0,ALSESECA
B27007,20.023056,-96.631944,VEGA DE ALATORRE
B27006,20.156111,-96.721111,EL RAUDAL
B27005,20.051944,-96.9175,LIBERTAD
B27004,0,0,ALAMO
B27002,20.540833,-97.472778,POZA RICA
B27001,20.0675,-97.048333,MARTINEZ DE LA TORRE
B26995,0,0,CHAPULTEPEC
B26984,19.45,-99.241667,CALACOAYA II
B26807,20.083333,-98.369444,TULANCINGO
B26790,0,0,CANAL DEL PUEBLO
B26555,0,0,LAS ADJUNTAS
B26523,0,0,TUNEL DE DESVIO
B26522,0,0,TAXIDO
B26521,0,0,MACONI
B26520,19.530556,-98.910278,SAN ANDRES ATENCO
B26519,0,0,PATHE
B26518,0,0,EL PARTIDOR
B26517,0,0,CRUZ BLANCA
B26516,20.184722,-100.145556,AMEALCO
B26514,0,0,LA AGRARIA
B26513,0,0,JAG_EY
B26512,0,0,SAN MARCOS
B26506,0,0,ACOCULCO
B26502,0,0,GOLONDRINAS
B26501,0,0,POTRERITO
B26500,0,0,EMISOR REQUENA
B26493,0,0,COLONIA MOCTEZUMA
B26492,0,0,"""COLECTOR """"L"""""""
B26491,0,0,"""COLECTOR """"C"""""""
B26490,0,0,"""COLECTOR """"B"""""""
B26489,0,0,"""COLECTOR """"A"""""""
B26488,0,0,COLECTOR 11-B
B26487,0,0,COLECTOR 11-A
B26486,0,0,COLECTOR NO. 2 (P.S.)
B26485,0,0,COLECTOR NO. 1 (P.S.)
B26484,0,0,COLECTOR SUR (30-32)
B26483,0,0,COLECTOR NO. 13
B26482,0,0,COLECTOR NO. 11
B26481,0,0,COLECTOR NO. 10
B26480,0,0,COLECTOR NO. 9
B26479,0,0,COLECTOR NO. 8
B26478,0,0,COLECTOR NO. 6
B26477,0,0,COLECTOR NO. 5
B26476,0,0,COLECTOR NO. 4
B26475,0,0,COLECTOR NO. 2
B26474,0,0,COLECTOR SUR
B26473,0,0,COLECTOR CENTRAL
B26472,0,0,COLECTOR NORTE
B26470,21.173889,-98.600556,SAN FELIPE ORIZATLAN
B26466,0,0,GUILLEN
B26465,0,0,EL SAUZAL
B26464,21.016667,-98.333333,ATLAPEXCO
B26463,0,0,EL CARRIL
B26462,0,0,ISASI
B26461,21.166667,-98.6,SAN FELIPE ORIZATLAN
B26460,0,0,DREN DE DESCARGA
B26459,0,0,JAVIER ROJO GOMEZ
B26458,0,0,SAN BARTOLITO
B26457,19.529444,-99.464167,PRESA ITURBIDE
B26456,0,0,REQUENA
B26455,0,0,ZUMPANGO
B26454,0,0,SALIDA PORTAL
B26453,21.883333,-100.068056,MEDIA LUNA
B26452,0,0,SAN BUENAVENTURA
B26450,0,0,KM. 9 +500
B26449,0,0,TASQUILLO
B26448,0,0,TUNEL EL GALLINERO
B26447,23.083611,-98.787222,SAN GABRIEL
B26445,0,0,GARCES
B26444,0,0,SAN FELIPE
PO2NL,24.900833,-99.4975,EL POPOTE II
B26442,19.504167,-99.221667,SANTA CRUZ
B26441,20.166667,-98.116667,LOS REYES
B26440,0,0,SANTA TERESA
B26439,19.416667,-99.2375,CALACOAYA III
B26438,0,0,LA CONCHITA
B26437,0,0,CONEJOS
B26436,0,0,PUENTE LA LLAVE
B26435,20.604167,-100.441111,LA H II
B26434,0,0,LA CONCEPCION
B26433,21.293611,-98.335278,PLATON SANCHEZ
B26432,0,0,CIEN FUEGOS
B26431,0,0,TAMASOPO
B26430,21.8525,-99.379722,AGUA BUENA
B26429,0,0,GUADALUPE
B26427,0,0,LA COFRADIA
B26426,0,0,PLANTA HIDROELECTRICA
B26424,22.053333,-98.172778,PANUCO
B26423,0,0,EL REFUGIO
B26422,0,0,CLAVO DE ORO
B26421,0,0,PUENTE MAZACINTLA
B26420,0,0,DESFOGUE EL SALTO
B26419,0,0,TANQUE EL SALTO
B26418,0,0,PRESA DERIVADORA EL SALTO
B26417,0,0,GALINDO II
B26416,22.423889,-98.422778,TAMESI
B26415,21.689167,-98.609167,SAN VICENTE
B26414,20.504167,-100.424444,SALIDAS PRESA CONSTITUCION 1917
B26412,0,0,EL CONDE
B26407,0,0,CAÑADA RICA
B26406,20.466667,-99.216667,IXMIQUILPAN II
B26402,0,0,LA DRAGA
B26400,0,0,AHUALULCO
B26395,0,0,JASSO II
B26392,0,0,BINOLA II
B26391,0,0,LA ROMERA
B26390,0,0,DEL PUEBLO
B26389,21.809444,-99.854444,VIGAS
B26388,23.022778,-99.094444,SABINAS
B26387,21.840278,-98.5125,EL OLIVO
B26373,0,0,CURVA DE JUDAS
B26362,0,0,PRESA MIXCOAC
B26361,0,0,IROLO
B26360,0,0,ETCHEGARAY
B26358,0,0,ENDO KM. 0 +229
B26357,19.616667,-99.193611,SAN MARTIN KM. 13 +521
B26356,0,0,SAN LORENZO KM. 24 +523
B26355,0,0,EL CAPULIN
B26354,19.7125,-99.195833,SAN LORENZO
B26352,19.566667,-99.216667,LAS ARBOLEDAS
B26350,0,0,LOPEZ RAYON
B26349,0,0,ADOLFO LOPEZ MATEOS
B26348,0,0,LA SOLEDAD
B26347,0,0,SAN JERONIMO
B26346,19.743056,-99.181944,PUENTE COLGANTE
B26344,0,0,LAGUNA DE APAN
B26342,0,0,TEZONTEPEC
B26341,21.849722,-100.762222,OJO CALIENTE
B26337,0,0,NOGAL OBSCURO
B26336,0,0,NACIMIENTO
B26335,0,0,NACIMIENTO
B26334,0,0,MANTE
B26332,0,0,LOS ANTEOJITOS
B26331,0,0,KM. 0 +286 (KM. 0+393)
B26330,0,0,KM.5+800
B26329,0,0,SAN JOSE
B26328,0,0,RIO VERDE
B26327,0,0,FERNANDEZ
B26324,0,0,VERTEDOR MILPA ALTA
B26323,0,0,EL MANANTIAL
B26322,0,0,BINOLA
B26321,0,0,VERTEDOR TECOMITL
B26320,19.663333,-99.958611,TEPETITLAN
B26317,0,0,PUENTE EL ARENAL
B26316,0,0,EL MANANTIAL
B26315,0,0,PUENTE DE VIGAS
B26314,0,0,TOMA DE TRANSMISION
B26313,19.633333,-99.05,KM. 27 +250
B26312,0,0,EL MANANTIAL
B26311,0,0,ALCHOLOYA
B26310,0,0,ALCHOLOYA
B26309,19.190278,-98.870833,SAN LUIS AMECA II
B26308,0,0,KM. 2+120 BOMBAS
B26307,0,0,KM. 14+000
B26306,0,0,RANCHO DE CASTRO
B26303,0,0,ACULCO
B26298,19.633333,-99.25,PRESA GUADALUPE
B26297,0,0,PUENTE CANAL KM. 9 +500
B26296,22.845278,-99.004167,RIO FRIO
B26295,20.515278,-98.625,EL ALAMO
B26294,20.515278,-98.625,EL ALAMO
B26293,21.241111,-98.758889,TEMAMATLA
B26292,21.683333,-99.316667,TANLACUT
B26291,21.391667,-98.875,TANCUILIN
B26289,21.036944,-98.139167,TERRERILLOS
B26286,0,0,EL CARDON
B26285,22.12,-99.159444,MICOS
B26283,22.95,-99.436111,CANAL BAJO
B26282,20.515278,-98.625,EL ALAMO
B26281,0,0,VENTORRILLO
B26280,22.833333,-99.116667,LA SERVILLETA
B26278,0,0,EL CHOY
B26277,21.160556,-98.274167,LOS HULES
B26276,0,0,SAN MARCOS
B26275,0,0,SAN LUCAS
B26274,19.476944,-98.877778,SAN MATEO
B26273,0,0,EL SALITRE
B26272,21.847222,-98.939722,EL PUJAL
B26271,0,0,KM. 27+000
B26270,21.225,-98.891667,TIERRA BLANCA
B26268,21.658333,-99.2,TANSABACA
B26267,21.941667,-99.25,GALLINAS
B26266,0,0,EL CAPULIN
B26264,0,0,LA AURORA
B26263,21.418056,-98.883333,SANTA ROSA
B26262,20.850556,-99.587778,SAN JOSE
B26260,0,0,POTRERO DE PALOS I
B26257,19.525833,-99.250556,CALACOAYA
B26255,21.975,-98.566667,LAS ADJUNTAS
B26254,0,0,DESFOGUE PRESA GUADALUPE
B26252,0,0,ALCHOLOYA
B26249,22.794167,-98.716111,MAGISCATZIN II
B26248,21.517222,-98.383333,TEMPOAL
B26247,0,0,LAS ROSAS
B26246,0,0,AMAJAC
B26245,0,0,POTOSI
B26244,21.777222,-98.443889,EL HIGO
B26243,21.425,-98.888611,REQUETEMU
B26242,0,0,EL MORRO
B26241,21.734722,-98.95,BALLESMI
B26239,0,0,KM. 46+930
B26231,0,0,EL TORNILLO
B26226,0,0,KM.2+000
B26224,22.003611,-98.773333,TAMUIN
B26223,0,0,LOS TOMATES
B26222,0,0,PUENTE T
B26221,25.028333,-100.551111,SAN RAFAEL
B26219,0,0,LLERA
B26218,23.383333,-99.083333,LA ENCANTADA
B26217,0,0,EL CONEJO
B26216,0,0,SALIDAS TUNEL NUEVO
B26214,0,0,SALIDA CONDUCTO CERRADO
B26213,0,0,VERTEDOR ENDO
B26205,20.785556,-100.045278,PASO DE TABLAS
B26204,0,0,KM.6+500
B26201,20.398333,-100.424167,KM. 0+700
B26198,0,0,PRESA MADERO FILTRACIONES
B26197,0,0,KM. 4 +500
B26196,0,0,AHUALULCO
B26195,0,0,TEJOCOTE
B26194,19.611389,-98.921667,TEPEXPAN
B26193,19.578889,-98.916944,LA GRANDE
B26192,0,0,BOQUILLA TECOLOTE
B26191,0,0,BOQUILLA TECOLOTE
B26190,0,0,TUNEL NUMERO 2
B26184,19.530556,-98.911111,SAN ANDRES
B26183,19.483333,-98.884722,CHAPINGO
B26182,0,0,PRESA MADERO
B26181,19.3,-99.205,DESVIACION ALTA PEDREGAL
B26180,0,0,SAN JUAN
B26178,0,0,ATENCO
B26172,0,0,PEDRO ESCOBEDO
B26171,0,0,SAN ILDEFONSO EXTRACCIONES
B26170,20.208333,-99.966667,SAN ILDEFONSO
B26168,0,0,SAN ILDEFONSO FILTRACIONES
B26165,0,0,SANTO TOMAS II
B26164,0,0,PRESA HIDALGO
B26163,0,0,LA H
B26162,0,0,GALINDO
B26151,20.672222,-100.050556,TEQUISQUIAPAN
B26150,0,0,EL SAUZ
B26149,0,0,SAN GABRIEL II
B26142,23,-98.95,XICOTENCATL
B26138,0,0,IXMIQUILPAN MARGEN DERECHA
B26137,20.481944,-99.220833,IXMIQUILPAN A
B26133,0,0,CALABOZO
B26126,0,0,LOS VICTORINOS
B26124,22.951389,-98.134722,JASSO
B26121,0,0,"IXMIQUILPAN, P.C."
B26120,0,0,LA AURORA
B26118,0,0,LA MORA
B26101,0,0,LOMO DE TORO
B26099,0,0,LOMO DE TORO
B26096,0,0,PRESA HIDALGO
B26089,0,0,EL NOGALAR
B26087,0,0,EL CONEJO
B26086,0,0,PUENTE FERROCARRIL
B26083,0,0,SANTIAGO
B26076,0,0,TUNEL NUMERO 1
B26074,0,0,EL SALTO
B26072,0,0,KM. 0+000
B26071,0,0,TEXCOCO
B26070,0,0,TEPEJI
B26069,0,0,KM. 0 +330
B26064,0,0,PLANTA TAXHIMAY
B26060,0,0,KM 0+000
B26057,19.4525,-99.283056,TOTOLICA
B26056,0,0,HUEHUETOCA
B26054,19.52,-99.118611,SAN JUAN IXHUATEPEC
B26053,0,0,EL MOLINITO
B26052,0,0,FILRACIONES TOTALES HASTA BINOLA
B26048,0,0,TECRUZ DE ANAHUAC
B26047,0,0,JIHUICO
B26043,0,0,FILTRACIONES PRESA GUADALUPE
B26042,0,0,VENADOS
B26041,0,0,XOCO
B26040,0,0,ALMOLON
B26039,19.413333,-99.013333,KM. 6 +250
B26035,0,0,MADIN
B26034,0,0,TLAUTLA
B26033,0,0,REQUENA
B26032,19.477778,-99.220833,MOLINO BLANCO
B26031,0,0,SCHMELZ
B26030,0,0,EL SALTO
B26027,0,0,RIACHUELO
B26026,0,0,EL SILENCIO
B26023,22.4,-101.2,AHUALULCO
B26022,20.598056,-100.209444,PASO DE TABLAS
B26020,20.219167,-99.889167,TAXHIE
B26007,0,0,TAJO DE TEQUISQUIAC
B26005,0,0,TLAMACO
B26001,0,0,KM. 0 +880
B26000,0,0,LAS ADJUNTAS
B25165,0,0,SOYOLAPA
B25122,0,0,TOMA LA ROSALVA
B25121,0,0,TOMA ESCONDIDA
B25120,24.898611,-99.475,EL POPOTE II
B25119,0,0,SOTOLAR (KM. 10+300)
B25118,23.699444,-99.193056,LAS PEÑITAS
B25117,24.066667,-99.254167,EL CARMEN
B25116,23.571389,-99.541944,ZAPATA
B25115,0,0,VEGA NUMERO 4
B25114,23.7675,-98.210833,SOTO LA MARINA
B25113,0,0,VICTORIA
B25112,23.911111,-99.113056,SUBIDA ALTA
B25111,23.255,-97.99,REAL VIEJO
B25110,23.255,-97.99,EL SOMBRERITO
B25109,0,0,LA BOCA
B25108,22.238611,-99.543333,LA PRESA
B25107,25.115278,-99.036111,SAN JUAN VAQUERIA
B25106,0,0,POBLADORES
B25105,0,0,EL CHIJOL
B25104,24.883333,-99.678611,LAS ADJUNTAS
B25103,24.900833,-99.4975,EL POPOTE
B25102,24.958611,-99.329722,BUENAVISTA
B25101,0,0,RIO BLANCO
B25099,24.694167,-99.6675,LA CARRERA
B25098,23.989167,-98.485,MARIANO MATAMOROS
B25093,24.992222,-99.213889,LA PAMONA
B25092,0,0,BARBERENA
B25091,0,0,EL BARRETAL II
B25090,24.103056,-99.213333,CRUZ
B25089,23.958333,-98.438889,LA VEGA NUMERO 3
B25087,0,0,PASO DE MOLINA II
B25086,0,0,LA SONADORA II
B25085,0,0,PILON lll
B25080,0,0,PILON II
B25079,0,0,EL ALAMO
B25077,0,0,SAN MIGUEL
B25076,0,0,SAN JOSE
B25073,0,0,EL BARREAL
B25070,0,0,EL BRASIL
B25069,19.460556,-96.7625,MIRADORES
B25068,0,0,EL LLANO
B25066,0,0,VILLAGRAN
B25065,0,0,LA TINAJA
B25064,24.5625,-99.554167,EL NOGAL
B25062,0,0,PADILLA II
B25061,0,0,LAS COLMENAS
B25055,0,0,LOS COYOTES
B25054,0,0,LA LAJA
B25052,0,0,SANTA MARIA
B25048,0,0,MALPASO
B25047,0,0,ESCOBEDO (EL MECO)
B25046,0,0,EL ANEGADO
B25044,24.918889,-99.254722,PURISIMA DE CONCHOS
B25043,24.251389,-99.436111,EL TOMASENO
B25042,24.938056,-99.385278,CERRO PRIETO
B25041,0,0,PASO DE MOLINA
B25040,24.566667,-99.551111,MAGUEYES
B25039,0,0,PASO DEL AURA
B25038,0,0,CORONA
B25037,0,0,LA ESPERANZA
B25036,0,0,LAS NORIAS
B25034,24.183333,-99.583333,PUERTO DE VALLES
B25033,23.961111,-98.6625,LA SONADORA
B25030,24.990278,-99.741667,CABEZONES
B25029,0,0,SANTO DOMINGO
B25028,0,0,SANTO DOMINGO
B25027,24.871944,-99.578889,CAMACHO
B25025,24.138333,-98.901667,PILON
B25015,24.05,-98.9,PADILLA
B25013,0,0,SAN FRANCISCO
B25012,24.1025,-99.215,EL BARRETAL
B25010,24.856944,-99.555556,PABLILLO
B25009,24.076389,-99.091667,SAN FERNANDO
B24509,25.429444,-100.128889,LA BOCA
EMPHD,0,0,"Emisor profundo, Hgo."
B24507,0,0,MILPA DEL ALTO
B24506,25.395833,-99.545556,LAS BRISAS
B24505,0,0,PASO DE NAVARRO
B24504,26.536667,-100.533333,SIERRA MORENA
B24503,0,0,SACRAMENTO
B24501,0,0,LOS HERRERAS II
B24406,0,0,IXMIQUILPAN
B24400,0,0,LLANITOS
B24399,25.800556,-100.274722,CANADA
B24388,0,0,PEGUIS
B24387,25.68,-100.205556,LOS LERMAS
B24385,25.214722,-99.938333,CALLES (CONGREGACION)
B24384,0,0,MONTERREY II
B24383,0,0,LOS HERRERAS III
B24380,0,0,TUNEL TOPO CHICO
B24378,0,0,PLANTA LA BOCA
B24377,26.843889,-100.647778,CANDELA
B24375,0,0,DEL RIO EN CIUDAD ACUÑA
B24374,0,0,ALIVIO SUR
B24373,0,0,LOS EBANOS
B24372,0,0,LAS MORAS CREEK
B24371,0,0,JIMENEZ
B24370,0,0,PURISIMA
B24369,0,0,RANCHO BRIGGS
B24367,0,0,ARROYO CIENAGA
B24366,0,0,MANANTIAL ROSITA
B24364,0,0,PRESA ANZALDUAS
B24363,0,0,MANANTIAL MCKEE
B24362,0,0,MANNATIAL MARIS
B24361,0,0,FILTRACIONES PRESA MARTE R.GOMEZ
B24360,0,0,MANANTIAL ERNESTINA
B24359,0,0,ARROYO DE LA TREINTA Y UNA
B24358,0,0,ARROYO MILLA OCHO
B24357,0,0,ARROYO DEL BUEY
B24356,0,0,ARROYO JABONCILLOS
B24355,0,0,MANANTIAL M - 5
B24353,0,0,BUFALO
B24352,0,0,MANANTIALES (PR. AMISTAD Y CD. ACUÑA)
B24351,26.022222,-99.196667,LOS ALDAMAS
B24350,0,0,MANANTIAL HILDA
B24349,0,0,MANANTIAL LOURDES
B24348,0,0,APORTACION VILLA DE SANTIAGO A MONTERREY
B24347,0,0,COMPLEJO MANANTIALES CARMINA
B24346,26.9,-105.7,PARRAL
B24344,0,0,BOMBEO ENTRE BROWSVILLE
B24343,0,0,BOMBEO ENTRE SAN BENITO Y BROWNSVILLE
B24342,0,0,SAN BENITO
B24341,0,0,CANAL RETAMAL
B24340,0,0,CANAL ANZALDUAS
B24339,28.983611,-105.280556,EL GRANERO
B24337,0,0,BOMBEO ENTRE ANZALDUAS Y PUENTE PROGRESO
B24336,0,0,BOMBEO ENTRE P Y FALCON Y G DE MEXICO
B24335,0,0,ENRAMADAS
B24334,0,0,CANAL MAVERICK
B24333,26.500556,-100.153889,SABINAS HIDALGO
B24332,0,0,ACEQUIA MADRE
B24331,0,0,CHUVISCAR
B24330,25.25,-100.026389,RAICES
B24329,0,0,BROWNSVILLE
B24328,0,0,FALOMIR
B24327,25.590278,-99.975,CADEREYTA II
B24326,0,0,LA ARENA
B24325,0,0,SEBASTIAN
B24324,0,0,LAS PALMAS
B24323,25.833333,-97.522778,MATAMOROS
B24322,0,0,CERCA DE MATAMOROS
B24321,0,0,ALIVIO NORTE
B24320,0,0,ALIVIO DEL RANCHO VIEJO
B24319,0,0,MERCEDES BRIDGE
B24318,0,0,SAN BENITO
B24317,0,0,BOMBEO ENTRE PROGRESO Y SAN BENITO
B24316,0,0,PUENTE PROGRESO
B24315,0,0,REYNOSA HIDALGO
B24314,0,0,REYNOSA PONIENTE
B24313,0,0,EL REJON
B24312,0,0,LOS OLMOS CREEK
B24311,0,0,SANTA ROSALIA
B24310,0,0,ROMA
B24309,0,0,BOMBEO ENTRE F RINGGOLD Y ANZALDUAS
B24308,0,0,BOMBEO ENTRE RIO GRANDE CITY Y ANZALDUAS
B24307,0,0,RIO GRANDE CITY (FORT RINGGOLD)
B24306,0,0,BOMBEO DE PRESA FALCON A RIO GRANDE CITY
B24305,0,0,CUATRO DRENES
B24304,0,0,PARSHALL HUASTECA
B24303,0,0,"APORTACIONES DEL D.R. BAJO SAN JUAN, ARRIBA"
B24302,0,0,DREN RANCHERIAS
B24301,25.505278,-99.770833,TEPEHUAJE
B24300,0,0,EL TIGRE
B24299,29,-101.9,ZAPATA
B24298,0,0,EL CABLE
B24297,0,0,DOLORES CREEK
B24296,0,0,"PRESA FALCON, SALIDAS"
B24295,0,0,"PRESA FALCON, ENTRADAS"
B24294,0,0,RIO SALADO
B24293,27.495556,-99.490278,NUEVO LAREDO
B24292,0,0,EL INDIO VADO SAN ANTONIO
B24291,25.941111,-100.686944,ICAMOLE
B24290,0,0,RIO ESCONDIDO
B24289,0,0,VILLA HIDALGO
B24287,0,0,PASO DE MULAS
B24285,28.666667,-100.516667,PIEDRAS NEGRAS
B24284,0,0,EL CENTINELA
B24283,0,0,PARAISO
B24282,0,0,ROSARIO
B24281,0,0,PROLONGACION CANAL MAVERICK
B24280,0,0,PUENTE FF.CC.
B24279,0,0,RETORNOS DEL D.R. MAVERICK (ABAJO)
B24278,0,0,RETORNOS DEL D.R. MAVERICK (ARRIBA)
B24277,0,0,HIDROELECTRICA MAVERICK
B24275,0,0,RIO SAN RODRIGO
B24274,0,0,BOMBEO ENTRE P FALCON Y F RINGGOLD
B24272,0,0,RIO SAN DIEGO
B24271,0,0,LA BOCA
B24269,0,0,MANANTIALES SAN FELIPE
B24268,0,0,ARROYO SAN FELIPE
B24267,0,0,MANANTIAL CANTU
B24266,0,0,PRESA DEL DIABLO
B24265,0,0,ARROYO PINTO
B24264,0,0,RIO SAN JUAN EN CAMARGO
B24263,0,0,SYCAMORE CREEK
B24262,0,0,ARROYO DE LAS VACAS
B24261,0,0,DEL RIO
B24260,0,0,ENTRADAS PRESA LA AMISTAD
B24259,0,0,KM. 1 +500
B24258,0,0,ROSARIO
B24257,0,0,ABAJO PRESA AMISTAD
B24256,0,0,RIO DEVIL`S (VADO PAFFORD)
B24255,0,0,RIO DEVIL`S (DESEMBOCADURA)
B24254,0,0,CHAPEÑO
B24253,0,0,RIO DEVIL´S (DEL RIO)
B24252,0,0,RIO DEVIL S (SUPERIOR)
B24251,0,0,MANANTIALES DOLAN
B24250,0,0,MANANTIALES DE GOODENOUGH
B24249,0,0,RIO PECOS (COMSTOCK)
B24248,0,0,RIO PECOS (DESEMBOCADURA)
B24247,0,0,RIO PECOS (SHUMLA)
B24246,0,0,LANGTRY
B24245,0,0,LOZIER
B24244,0,0,BOQUILLAS
B24243,0,0,CANAL ANZALDUAS
B24242,0,0,CONCHOS
B24241,0,0,AGUA VERDE
B24240,0,0,RIO PECOS (LANGTRY)
B24239,0,0,RANCHO FOSTER
B24238,0,0,RANCHO JOHNSON
B24237,0,0,KM 92+400
B24236,0,0,ARROYO TERLINGUA
B24235,0,0,PRESIDIO ABAJO
B24234,0,0,KM. 106 +000
B24233,0,0,PASO DE PIEDRA
B24232,0,0,AGUAS ABAJO DEL CONCHOS EN OJINAGA
B24231,0,0,ARROYO ALAMITO
B24230,0,0,RIO CONCHOS
B24229,0,0,SAN JUAN
B24228,0,0,VAQUERIA
B24227,0,0,LA NUTRIA
B24226,28.515,-105.430556,LAS BURRAS
B24225,24.211944,-98.484722,JIMENEZ
B24223,0,0,KM. 1+600
B24222,0,0,KM. 0+700
B24221,0,0,KM. 30 +000
B24220,0,0,CANDELARIA
B24219,0,0,ACALA (COUNTY LINE)
B24218,0,0,FRANCISCO I. MADERO (SALIDAS PRESA)
B24216,27.543889,-105.411944,FILTRACIONES PRESA LA BOQUILLA
B24215,0,0,SAN AMBROSIO
B24213,27.579167,-105.366667,TECUAN
B24212,0,0,SABINAS COAHUILA
B24211,0,0,FORT QUITMAN
B24210,0,0,EL TORNILLO
B24209,0,0,COUNTY LINE
B24208,0,0,CLINT (ISLAND)
B24207,0,0,CIUDAD JUAREZ
B24206,0,0,PRESA AMERICANA
B24205,0,0,CANAL AMERICANO
B24204,0,0,EL PASO
B24203,0,0,BUENOS AIRES
B24202,0,0,KM. 1 +300
B24201,0,0,PRESA DEL CABALLO
B24200,0,0,PRESA DEL ELEFANTE
B24198,25.6825,-100.266944,MONTERREY
B24196,25.897778,-99.400833,LOS HERRERAS
B24195,0,0,SAN ANTONIO
B24194,0,0,LA TABLA
B24192,25.181944,-99.832222,MONTEMORELOS
B24191,0,0,PASCUALENO
B24183,0,0,KM. 105 SIFONES
B24182,0,0,KM. 1 +000
B24181,0,0,VILLALBA
B24150,25.456944,-100.995278,PROGRESO
B24132,0,0,LAS VIRGENES
B24088,25.718056,-99.256111,EL CUCHILLO
B24087,25.951389,-100.163333,CIENEGA DE FLORES
B24077,27.577222,-105.371389,COLINA
B24072,0,0,HIDALGO
B24043,0,0,RIO ALAMO
B24038,27.238333,-100.131389,RODRIGUEZ
B24026,27.841667,-101.120833,SABINAS COAHUILA
B24017,0,0,CD MIGUEL ALEMAN
B24015,0,0,SAN MARCIAL
B23991,0,0,ISLAMAPA
B23048,0,0,ULAPA
B23047,16.241111,-93.8975,ARRIAGA
B23046,0,0,SIETE CIGARROS
B23045,0,0,SESECAPA
B23044,0,0,DOÑA MARIA
B23043,0,0,PUMPUAPA
B23042,0,0,LOS LIMONES
B23041,0,0,EL ROSARIO
